~Version Information Block
VERS .                 2.00:  CWLS LOG ASCII STANDARD - VERSION 2.00
WRAP .                   NO:  One line per depth step
~Well Information Block
#MNEM.UNIT        Data Type   Information
#---------- ----------------  -----------
STRT .F                23.5:  START DEPTH
STOP .F               17600:  STOP DEPTH
STEP .F                 0.5:  STEP
NULL .              -999.25:  NULL VALUE
COMP .                     :  COMPANY
WELL .             	   :  WELL
FLD  .                     :  FIELD
LOC  .                     :  LOCATION
PROV .                     :  PROVINCE
UWI  .                     :  UNIQUE WELL ID
SRVC .                     :  SERVICE COMPANY
DATE .                     :  LOG DATE
~Curve Information Block
#MNEM.UNIT         API CODE   Curve Description
#---------- ----------------  -----------------
DEPTH.F                    :  Depth track
DT   .US/F                 :  P-wave Sonic  
DTSM .US/F                 :  S-wave Sonic
RHOB_BA.G/C3               :  Density
~Parameter Information Block
#MNEM.UNIT            Value   Description
#---------- ----------------  -----------
SET  .                  GTD:  
~Other Information Block
~A        DEPTH             DT           DTSM        RHOB_BA 
# ...
        11701.5       50.1846       97.8304        2.8171
        11702.0       49.8949       97.8232        2.8307
        11702.5       49.6226       97.7054        2.8301
        11703.0       49.4399       97.5236        2.8276
        11703.5       49.4024       97.3306        2.8165
        11704.0       49.5394       97.1944        2.8006
        11704.5       49.8518       97.1852        2.7954
        11705.0       50.3088       97.3466        2.7985
        11705.5       50.8474       97.6657        2.7888
        11706.0       51.3813       98.0696        2.7596
        11706.5       51.8239       98.4548        2.7252
        11707.0       52.1094       98.7329        2.6994
        11707.5       52.2054       98.8629        2.6879
        11708.0       52.1136       98.8507        2.6891
        11708.5       51.8625       98.7197        2.6950
        11709.0       51.4998       98.4773        2.7032
        11709.5       51.0844       98.1130        2.7212
        11710.0       50.6774       97.6359        2.7421
        11710.5       50.3309       97.1021        2.7470
        11711.0       50.0790       96.6004        2.7394
        11711.5       49.9366       96.2039        2.7379
        11712.0       49.9018       95.9339        2.7435
        11712.5       49.9560       95.7694        2.7445
        11713.0       50.0676       95.6818        2.7359
        11713.5       50.1999       95.6644        2.7302
        11714.0       50.3236       95.7287        2.7448
        11714.5       50.4228       95.8756        2.7774
        11715.0       50.4929       96.0752        2.8085
        11715.5       50.5363       96.2751        2.8274
        11716.0       50.5591       96.4351        2.8302
        11716.5       50.5698       96.5523        2.8120
        11717.0       50.5771       96.6559        2.7829
        11717.5       50.5899       96.7850        2.7615
        11718.0       50.6181       96.9755        2.7523
        11718.5       50.6669       97.2644        2.7499
        11719.0       50.7330       97.6901        2.7529
        11719.5       50.8122       98.2818        2.7588
        11720.0       50.9154       99.0462        2.7536
        11720.5       51.0689       99.9595        2.7303
        11721.0       51.2917      100.9726        2.6987
        11721.5       51.5733      102.0213        2.6722
        11722.0       51.8728      103.0351        2.6626
        11722.5       52.1443      103.9381        2.6755
        11723.0       52.3633      104.6533        2.7029
        11723.5       52.5294      105.1207        2.7282
        11724.0       52.6488      105.3134        2.7404
        11724.5       52.7128      105.2399        2.7399
        11725.0       52.6990      104.9300        2.7378
        11725.5       52.5929      104.4190        2.7426
        11726.0       52.4091      103.7484        2.7543
        11726.5       52.1853      102.9754        2.7689
        11727.0       51.9527      102.1722        2.7797
        11727.5       51.7200      101.4007        2.7843
        11728.0       51.4793      100.6800        2.7858
        11728.5       51.2218       99.9807        2.7802
        11729.0       50.9449       99.2534        2.7588
        11729.5       50.6533       98.4671        2.7286
        11730.0       50.3549       97.6245        2.7051
        11730.5       50.0511       96.7509        2.6899
        11731.0       49.7310       95.8778        2.6772
        11731.5       49.3815       95.0348        2.6742
        11732.0       49.0057       94.2483        2.6856
        11732.5       48.6356       93.5427        2.6993
        11733.0       48.3208       92.9461        2.7077
        11733.5       48.0999       92.4887        2.7233
        11734.0       47.9767       92.1899        2.7504
        11734.5       47.9202       92.0458        2.7666
        11735.0       47.8912       92.0273        2.7554
        11735.5       47.8671       92.0805        2.7373
        11736.0       47.8511       92.1321        2.7389
        11736.5       47.8557       92.1097        2.7615
        11737.0       47.8834       91.9697        2.7888
        11737.5       47.9205       91.7105        2.8064
        11738.0       47.9455       91.3570        2.8105
        11738.5       47.9415       90.9337        2.8016
        11739.0       47.9056       90.4553        2.7858
        11739.5       47.8563       89.9387        2.7801
        11740.0       47.8269       89.4237        2.7940
        11740.5       47.8397       88.9799        2.8125
        11741.0       47.8834       88.6866        2.8156
        11741.5       47.9211       88.5897        2.8081
        11742.0       47.9259       88.6701        2.8092
        11742.5       47.9076       88.8539        2.8189
        11743.0       47.8985       89.0627        2.8206
        11743.5       47.9150       89.2552        2.8135
        11744.0       47.9402       89.4251        2.8136
        11744.5       47.9507       89.5651        2.8236
        11745.0       47.9478       89.6386        2.8273
        11745.5       47.9576       89.5887        2.8142
        11746.0       47.9961       89.3776        2.7949
        11746.5       48.0404       89.0219        2.7816
        11747.0       48.0392       88.5898        2.7763
        11747.5       47.9525       88.1645        2.7803
        11748.0       47.7895       87.8043        2.7929
        11748.5       47.5972       87.5284        2.8053
        11749.0       47.4140       87.3377        2.8102
        11749.5       47.2441       87.2435        2.8108
        11750.0       47.0741       87.2762        2.8103
        11750.5       46.9124       87.4659        2.8097
        11751.0       46.7986       87.8173        2.8121
        11751.5       46.7762       88.3067        2.8197
        11752.0       46.8595       88.8960        2.8279
        11752.5       47.0226       89.5475        2.8313
        11753.0       47.2179       90.2244        2.8273
        11753.5       47.4001       90.8861        2.8158
        11754.0       47.5474       91.4855        2.7990
        11754.5       47.6611       91.9703        2.7814
        11755.0       47.7449       92.2949        2.7690
        11755.5       47.7869       92.4356        2.7671
        11756.0       47.7649       92.3989        2.7719
        11756.5       47.6683       92.2140        2.7733
        11757.0       47.5111       91.9178        2.7707
        11757.5       47.3240       91.5483        2.7723
        11758.0       47.1416       91.1463        2.7784
        11758.5       46.9943       90.7558        2.7812
        11759.0       46.9109       90.4169        2.7788
        11759.5       46.9147       90.1555        2.7749
        11760.0       47.0210       89.9803        2.7684
        11760.5       47.2324       89.8922        2.7575
        11761.0       47.5378       89.8982        2.7491
        11761.5       47.9165       90.0144        2.7505
        11762.0       48.3459       90.2557        2.7577
        11762.5       48.8023       90.6176        2.7629
        11763.0       49.2513       91.0720        2.7645
        11763.5       49.6403       91.5779        2.7646
        11764.0       49.9049       92.0950        2.7663
        11764.5       49.9926       92.5810        2.7727
        11765.0       49.8842       92.9847        2.7808
        11765.5       49.5995       93.2561        2.7795
        11766.0       49.1826       93.3660        2.7657
        11766.5       48.6821       93.3181        2.7542
        11767.0       48.1390       93.1417        2.7600
        11767.5       47.5877       92.8739        2.7825
        11768.0       47.0617       92.5484        2.8061
        11768.5       46.6001       92.1949        2.8137
        11769.0       46.2419       91.8441        2.8039
        11769.5       46.0148       91.5201        2.7903
        11770.0       45.9220       91.2250        2.7802
