~Version Information Block
VERS .                 2.00:  CWLS LOG ASCII STANDARD - VERSION 2.00
WRAP .                   NO:  One line per depth step
~Well Information Block
#MNEM.UNIT        Data Type   Information
#---------- ----------------  -----------
STRT .F                23.5:  START DEPTH
STOP .F               17600:  STOP DEPTH
STEP .F                 0.5:  STEP
NULL .              -999.25:  NULL VALUE
COMP .                     :  COMPANY
WELL .             	   :  WELL
FLD  .                     :  FIELD
LOC  .                     :  LOCATION
PROV .                     :  PROVINCE
UWI  .                     :  UNIQUE WELL ID
SRVC .                     :  SERVICE COMPANY
DATE .                     :  LOG DATE
~Curve Information Block
#MNEM.UNIT         API CODE   Curve Description
#---------- ----------------  -----------------
DEPTH.F                    :  Depth track
DT   .US/F                 :  P-wave Sonic  
DTSM .US/F                 :  S-wave Sonic
RHOB_BA.G/C3               :  Density
~Parameter Information Block
#MNEM.UNIT            Value   Description
#---------- ----------------  -----------
SET  .                  GTD:  
~Other Information Block
~A        DEPTH             DT           DTSM        RHOB_BA 
# ...
        10528.5       50.8279       99.3410        2.7214
        10529.0       50.8415       99.2415        2.7197
        10529.5       50.8566       99.0957        2.7143
        10530.0       50.8972       98.9361        2.7131
        10530.5       50.9801       98.7930        2.7170
        10531.0       51.1035       98.6855        2.7188
        10531.5       51.2497       98.6165        2.7139
        10532.0       51.3963       98.5840        2.7090
        10532.5       51.5253       98.6020        2.7116
        10533.0       51.6250       98.7009        2.7196
        10533.5       51.6919       98.9032        2.7259
        10534.0       51.7315       99.2022        2.7292
        10534.5       51.7576       99.5730        2.7309
        10535.0       51.7869       99.9960        2.7306
        10535.5       51.8322      100.4617        2.7267
        10536.0       51.8993      100.9514        2.7200
        10536.5       51.9913      101.4243        2.7149
        10537.0       52.1097      101.8266        2.7134
        10537.5       52.2498      102.1192        2.7114
        10538.0       52.3950      102.2986        2.7070
        10538.5       52.5232      102.3884        2.7048
        10539.0       52.6188      102.4045        2.7071
        10539.5       52.6746      102.3331        2.7097
        10540.0       52.6850      102.1527        2.7094
        10540.5       52.6429      101.8758        2.7094
        10541.0       52.5481      101.5597        2.7132
        10541.5       52.4189      101.2713        2.7199
        10542.0       52.2988      101.0513        2.7256
        10542.5       52.2455      100.9203        2.7288
        10543.0       52.3031      100.9062        2.7325
        10543.5       52.4832      101.0536        2.7389
        10544.0       52.7725      101.4047        2.7434
        10544.5       53.1569      101.9711        2.7432
        10545.0       53.6289      102.7237        2.7407
        10545.5       54.1709      103.6024        2.7345
        10546.0       54.7373      104.5322        2.7237
        10546.5       55.2562      105.4307        2.7152
        10547.0       55.6460      106.2040        2.7147
        10547.5       55.8351      106.7557        2.7203
        10548.0       55.7828      107.0111        2.7254
        10548.5       55.4949      106.9455        2.7238
        10549.0       55.0214      106.5891        2.7183
        10549.5       54.4330      106.0045        2.7167
        10550.0       53.7993      105.2606        2.7209
        10550.5       53.1780      104.4217        2.7271
        10551.0       52.6130      103.5517        2.7302
        10551.5       52.1401      102.7178        2.7280
        10552.0       51.7949      101.9875        2.7250
        10552.5       51.6100      101.4228        2.7258
        10553.0       51.5933      101.0663        2.7276
        10553.5       51.7126      100.9257        2.7289
        10554.0       51.9071      100.9660        2.7338
        10554.5       52.1169      101.1247        2.7397
        10555.0       52.3063      101.3412        2.7384
        10555.5       52.4664      101.5780        2.7306
        10556.0       52.6070      101.8230        2.7259
        10556.5       52.7448      102.0726        2.7279
        10557.0       52.8915      102.3212        2.7333
        10557.5       53.0489      102.5639        2.7402
        10558.0       53.2130      102.8086        2.7477
        10558.5       53.3851      103.0792        2.7517
        10559.0       53.5741      103.4005        2.7517
        10559.5       53.7883      103.7748        2.7546
        10560.0       54.0247      104.1760        2.7605
        10560.5       54.2632      104.5654        2.7587
        10561.0       54.4736      104.9126        2.7451
        10561.5       54.6305      105.2026        2.7296
        10562.0       54.7284      105.4295        2.7230
        10562.5       54.7804      105.5914        2.7268
        10563.0       54.8038      105.6922        2.7354
        10563.5       54.8056      105.7432        2.7441
        10564.0       54.7794      105.7574        2.7488
        10564.5       54.7093      105.7396        2.7458
        10565.0       54.5761      105.6805        2.7383
        10565.5       54.3666      105.5571        2.7353
        10566.0       54.0814      105.3468        2.7373
        10566.5       53.7356      105.0369        2.7388
        10567.0       53.3524      104.6309        2.7406
        10567.5       52.9574      104.1479        2.7456
        10568.0       52.5752      103.6216        2.7517
        10568.5       52.2304      103.0988        2.7560
        10569.0       51.9534      102.6326        2.7590
        10569.5       51.7844      102.2704        2.7597
        10570.0       51.7600      102.0395        2.7585
        10570.5       51.8851      101.9404        2.7579
        10571.0       52.1144      101.9489        2.7587
        10571.5       52.3666      102.0258        2.7595
        10572.0       52.5677      102.1290        2.7591
        10572.5       52.6847      102.2216        2.7577
        10573.0       52.7280      102.2793        2.7575
        10573.5       52.7252      102.2910        2.7621
        10574.0       52.6898      102.2578        2.7698
        10574.5       52.6113      102.1900        2.7750
        10575.0       52.4707      102.0974        2.7750
        10575.5       52.2683      101.9792        2.7696
        10576.0       52.0354      101.8244        2.7601
        10576.5       51.8171      101.6262        2.7499
        10577.0       51.6514      101.4038        2.7421
        10577.5       51.5630      101.2046        2.7374
        10578.0       51.5684      101.0844        2.7346
        10578.5       51.6762      101.0827        2.7316
        10579.0       51.8808      101.2145        2.7290
        10579.5       52.1623      101.4747        2.7288
        10580.0       52.4929      101.8490        2.7284
        10580.5       52.8409      102.3193        2.7255
        10581.0       53.1672      102.8635        2.7219
        10581.5       53.4237      103.4470        2.7199
        10582.0       53.5665      104.0172        2.7180
        10582.5       53.5748      104.5106        2.7149
        10583.0       53.4648      104.8722        2.7116
        10583.5       53.2860      105.0738        2.7108
        10584.0       53.0941      105.1248        2.7159
        10584.5       52.9259      105.0662        2.7258
        10585.0       52.7911      104.9479        2.7328
        10585.5       52.6878      104.7990        2.7329
        10586.0       52.6180      104.6139        2.7307
        10586.5       52.5844      104.3688        2.7293
        10587.0       52.5793      104.0544        2.7260
        10587.5       52.5766      103.6925        2.7197
        10588.0       52.5399      103.3237        2.7141
        10588.5       52.4405      102.9813        2.7145
        10589.0       52.2747      102.6804        2.7200
        10589.5       52.0688      102.4221        2.7231
        10590.0       51.8633      102.2077        2.7197
        10590.5       51.6932      102.0477        2.7140
        10591.0       51.5788      101.9602        2.7123
        10591.5       51.5365      101.9625        2.7160
        10592.0       51.5889      102.0572        2.7226
        10592.5       51.7600      102.2249        2.7268
        10593.0       52.0601      102.4343        2.7255
        10593.5       52.4728      102.6660        2.7201
        10594.0       52.9531      102.9255        2.7109
        10594.5       53.4358      103.2323        2.6985
        10595.0       53.8523      103.5931        2.6909
        10595.5       54.1477      103.9780        2.6929
        10596.0       54.2916      104.3213        2.6997
        10596.5       54.2814      104.5510        2.7050
        10597.0       54.1364      104.6278        2.7085
