~Version Information Block
VERS .                 2.00:  CWLS LOG ASCII STANDARD - VERSION 2.00
WRAP .                   NO:  One line per depth step
~Well Information Block
#MNEM.UNIT        Data Type   Information
#---------- ----------------  -----------
STRT .F                23.5:  START DEPTH
STOP .F               17600:  STOP DEPTH
STEP .F                 0.5:  STEP
NULL .              -999.25:  NULL VALUE
COMP .                     :  COMPANY
WELL .             	   :  WELL
FLD  .                     :  FIELD
LOC  .                     :  LOCATION
PROV .                     :  PROVINCE
UWI  .                     :  UNIQUE WELL ID
SRVC .                     :  SERVICE COMPANY
DATE .                     :  LOG DATE
~Curve Information Block
#MNEM.UNIT         API CODE   Curve Description
#---------- ----------------  -----------------
DEPTH.F                    :  Depth track
DT   .US/F                 :  P-wave Sonic  
DTSM .US/F                 :  S-wave Sonic
RHOB_BA.G/C3               :  Density
~Parameter Information Block
#MNEM.UNIT            Value   Description
#---------- ----------------  -----------
SET  .                  GTD:  
~Other Information Block
~A        DEPTH             DT           DTSM        RHOB_BA 
# ...
        16324.5       55.3339       81.6437        2.2990
        16325.0       55.4240       81.1465        2.3100
        16325.5       55.4921       81.0019        2.3260
        16326.0       55.5443       81.2960        2.3660
        16326.5       55.5870       82.1060        2.4410
        16327.0       55.6231       83.4503        2.5260
        16327.5       55.6520       85.2648        2.5840
        16328.0       55.6744       87.4073        2.6040
        16328.5       55.6937       89.6625        2.5900
        16329.0       55.7137       91.7675        2.5300
        16329.5       55.7346       93.4624        2.4040
        16330.0       55.7534       94.5624        2.2600
        16330.5       55.7698       95.0159        2.1670
        16331.0       55.7880       94.8887        2.1370
        16331.5       55.8127       94.2925        2.1410
        16332.0       55.8431       93.3178        2.1530
        16332.5       55.8715       92.0282        2.1590
        16333.0       55.8874       90.5079        2.1590
        16333.5       55.8802       88.8986        2.1580
        16334.0       55.8428       87.3803        2.1750
        16334.5       55.7751       86.0926        2.2100
        16335.0       55.6870       85.0623        2.2380
        16335.5       55.5963       84.2108        2.2440
        16336.0       55.5220       83.4331        2.2440
        16336.5       55.4777       82.6836        2.2330
        16337.0       55.4669       81.9993        2.2080
        16337.5       55.4805       81.4703        2.1840
        16338.0       55.5004       81.1870        2.1580
        16338.5       55.5062       81.1856        2.1170
        16339.0       55.4846       81.4111        2.0620
        16339.5       55.4346       81.7329        1.9900
        16340.0       55.3688       82.0252        1.9110
        16340.5       55.3129       82.2517        1.8580
        16341.0       55.3001       82.4945        1.8400
        16341.5       55.3582       82.9031        1.8390
        16342.0       55.4990       83.5943        1.8410
        16342.5       55.7213       84.5705        1.8470
        16343.0       56.0152       85.7284        1.8590
        16343.5       56.3590       86.9483        1.8710
        16344.0       56.7104       88.1690        1.8460
        16344.5       57.0039       89.3789        1.8030
        16345.0       57.1671       90.5254        1.7750
        16345.5       57.1513       91.4556        1.7660
        16346.0       56.9559       91.9700        1.7680
        16346.5       56.6291       91.9346        1.7710
        16347.0       56.2396       91.3597        1.7750
        16347.5       55.8444       90.3851        1.8010
        16348.0       55.4785       89.2094        1.8810
        16348.5       55.1716       88.0193        1.9950
        16349.0       54.9646       86.9700        2.0700
        16349.5       54.9003       86.2088        2.0770
        16350.0       54.9998       85.8681        2.0660
        16350.5       55.2474       86.0177        2.0660
        16351.0       55.5905       86.6157        2.0720
        16351.5       55.9529       87.5115        2.0820
        16352.0       56.2581       88.5033        2.0990
        16352.5       56.4520       89.3918        2.1410
        16353.0       56.5131       90.0048        2.2310
        16353.5       56.4477       90.2019        2.3300
        16354.0       56.2772       89.9021        2.3730
        16354.5       56.0252       89.1279        2.3900
        16355.0       55.7212       88.0084        2.4190
        16355.5       55.4123       86.7356        2.4440
        16356.0       55.1620       85.5019        2.4460
        16356.5       55.0352       84.4606        2.4420
        16357.0       55.0717       83.7246        2.4390
        16357.5       55.2660       83.3753        2.4350
        16358.0       55.5717       83.4545        2.4280
        16358.5       55.9315       83.9383        2.3990
        16359.0       56.3085       84.7252        2.3180
        16359.5       56.6848       85.6649        2.1860
        16360.0       57.0373       86.6157        2.0410
        16360.5       57.3234       87.4881        1.9290
        16361.0       57.4980       88.2412        1.8720
        16361.5       57.5463       88.8463        1.8520
        16362.0       57.4993       89.2480        1.8440
        16362.5       57.4174       89.3701        1.8390
        16363.0       57.3519       89.1517        1.8360
        16363.5       57.3144       88.5711        1.8350
        16364.0       57.2768       87.6523        1.8360
        16364.5       57.2014       86.4607        1.8490
        16365.0       57.0779       85.0951        1.9000
        16365.5       56.9307       83.6761        1.9820
        16366.0       56.7914       82.3345        2.0600
        16366.5       56.6690       81.1952        2.0980
        16367.0       56.5471       80.3536        2.1010
        16367.5       56.4047       79.8771        2.1000
        16368.0       56.2377       79.8153        2.1210
        16368.5       56.0685       80.1706        2.1760
        16369.0       55.9330       80.8482        2.2460
        16369.5       55.8592       81.6567        2.2890
        16370.0       55.8555       82.4017        2.2930
        16370.5       55.9169       82.9957        2.2880
        16371.0       56.0394       83.4868        2.2850
        16371.5       56.2274       83.9753        2.2840
        16372.0       56.4861       84.4892        2.2930
        16372.5       56.8028       84.9375        2.3350
        16373.0       57.1316       85.1741        2.4050
        16373.5       57.4009       85.1257        2.4540
        16374.0       57.5425       84.8887        2.4680
        16374.5       57.5217       84.6853        2.4700
        16375.0       57.3464       84.6967        2.4710
        16375.5       57.0539       84.9214        2.4700
        16376.0       56.6906       85.1887        2.4660
        16376.5       56.2984       85.2962        2.4630
        16377.0       55.9143       85.1572        2.4670
        16377.5       55.5790       84.8639        2.4830
        16378.0       55.3389       84.6130        2.4950
        16378.5       55.2334       84.5436        2.4930
        16379.0       55.2730       84.6204        2.4910
        16379.5       55.4290       84.6729        2.5020
        16380.0       55.6462       84.5518        2.5150
        16380.5       55.8673       84.2575        2.5150
        16381.0       56.0571       83.9322        2.5080
        16381.5       56.2101       83.7449        2.5090
        16382.0       56.3451       83.7747        2.5280
        16382.5       56.4894       83.9824        2.5560
        16383.0       56.6540       84.2655        2.5750
        16383.5       56.8195       84.5314        2.5700
        16384.0       56.9435       84.7416        2.5330
        16384.5       56.9866       84.9169        2.4770
        16385.0       56.9349       85.1278        2.4310
        16385.5       56.8028       85.4746        2.4040
        16386.0       56.6168       86.0382        2.4020
        16386.5       56.3955       86.8184        2.4200
        16387.0       56.1452       87.7164        2.4420
        16387.5       55.8753       88.5728        2.4520
        16388.0       55.6158       89.2329        2.4470
        16388.5       55.4140       89.5998        2.4320
        16389.0       55.3083       89.6490        2.4210
        16389.5       55.3030       89.3961        2.4320
        16390.0       55.3653       88.8575        2.4600
        16390.5       55.4469       88.0609        2.4830
        16391.0       55.5124       87.0933        2.4850
        16391.5       55.5517       86.1087        2.4790
        16392.0       55.5771       85.2675        2.4770
        16392.5       55.6096       84.6675        2.4730
        16393.0       55.6648       84.3398        2.4470
