~Version Information Block
VERS .                 2.00:  CWLS LOG ASCII STANDARD - VERSION 2.00
WRAP .                   NO:  One line per depth step
~Well Information Block
#MNEM.UNIT        Data Type   Information
#---------- ----------------  -----------
STRT .F                23.5:  START DEPTH
STOP .F               17600:  STOP DEPTH
STEP .F                 0.5:  STEP
NULL .              -999.25:  NULL VALUE
COMP .                     :  COMPANY
WELL .             	   :  WELL
FLD  .                     :  FIELD
LOC  .                     :  LOCATION
PROV .                     :  PROVINCE
UWI  .                     :  UNIQUE WELL ID
SRVC .                     :  SERVICE COMPANY
DATE .                     :  LOG DATE
~Curve Information Block
#MNEM.UNIT         API CODE   Curve Description
#---------- ----------------  -----------------
DEPTH.F                    :  Depth track
DT   .US/F                 :  P-wave Sonic  
DTSM .US/F                 :  S-wave Sonic
RHOB_BA.G/C3               :  Density
~Parameter Information Block
#MNEM.UNIT            Value   Description
#---------- ----------------  -----------
SET  .                  GTD:  
~Other Information Block
~A        DEPTH             DT           DTSM        RHOB_BA 
# ...
         8182.5       50.6939       99.5591        2.9726
         8183.0       50.6742       99.5534        2.9772
         8183.5       50.6681       99.4781        2.9815
         8184.0       50.6769       99.3368        2.9824
         8184.5       50.6971       99.1513        2.9789
         8185.0       50.7213       98.9462        2.9760
         8185.5       50.7424       98.7354        2.9759
         8186.0       50.7554       98.5212        2.9768
         8186.5       50.7589       98.3038        2.9793
         8187.0       50.7535       98.0877        2.9825
         8187.5       50.7412       97.8792        2.9824
         8188.0       50.7217       97.6790        2.9786
         8188.5       50.6911       97.4829        2.9758
         8189.0       50.6430       97.2900        2.9738
         8189.5       50.5728       97.1097        2.9700
         8190.0       50.4822       96.9586        2.9662
         8190.5       50.3800       96.8517        2.9686
         8191.0       50.2788       96.7968        2.9767
         8191.5       50.1908       96.7954        2.9793
         8192.0       50.1236       96.8485        2.9675
         8192.5       50.0802       96.9632        2.9465
         8193.0       50.0613       97.1486        2.9306
         8193.5       50.0685       97.4043        2.9288
         8194.0       50.1026       97.7123        2.9397
         8194.5       50.1597       98.0429        2.9552
         8195.0       50.2294       98.3723        2.9694
         8195.5       50.2974       98.6926        2.9840
         8196.0       50.3527       99.0087        3.0003
         8196.5       50.3912       99.3242        3.0072
         8197.0       50.4166       99.6311        2.9966
         8197.5       50.4357       99.9120        2.9767
         8198.0       50.4542      100.1511        2.9596
         8198.5       50.4736      100.3443        2.9498
         8199.0       50.4918      100.4974        2.9445
         8199.5       50.5063      100.6172        2.9406
         8200.0       50.5159      100.7060        2.9432
         8200.5       50.5204      100.7622        2.9539
         8201.0       50.5198      100.7807        2.9626
         8201.5       50.5146      100.7523        2.9637
         8202.0       50.5047      100.6670        2.9609
         8202.5       50.4903      100.5230        2.9580
         8203.0       50.4728      100.3347        2.9585
         8203.5       50.4565      100.1313        2.9622
         8204.0       50.4467       99.9431        2.9673
         8204.5       50.4466       99.7816        2.9748
         8205.0       50.4543       99.6335        2.9822
         8205.5       50.4636       99.4786        2.9845
         8206.0       50.4678       99.3141        2.9802
         8206.5       50.4642       99.1615        2.9730
         8207.0       50.4548       99.0461        2.9680
         8207.5       50.4435       98.9741        2.9699
         8208.0       50.4328       98.9297        2.9785
         8208.5       50.4226       98.8907        2.9875
         8209.0       50.4129       98.8456        2.9870
         8209.5       50.4045       98.7971        2.9764
         8210.0       50.3984       98.7539        2.9658
         8210.5       50.3938       98.7189        2.9600
         8211.0       50.3884       98.6823        2.9571
         8211.5       50.3817       98.6260        2.9596
         8212.0       50.3751       98.5339        2.9684
         8212.5       50.3711       98.4008        2.9749
         8213.0       50.3705       98.2363        2.9730
         8213.5       50.3721       98.0634        2.9671
         8214.0       50.3742       97.9092        2.9634
         8214.5       50.3764       97.7907        2.9613
         8215.0       50.3802       97.7086        2.9614
         8215.5       50.3871       97.6549        2.9667
         8216.0       50.3974       97.6280        2.9746
         8216.5       50.4096       97.6338        2.9778
         8217.0       50.4222       97.6710        2.9743
         8217.5       50.4337       97.7201        2.9693
         8218.0       50.4433       97.7528        2.9678
         8218.5       50.4504       97.7519        2.9679
         8219.0       50.4550       97.7211        2.9640
         8219.5       50.4575       97.6727        2.9574
         8220.0       50.4582       97.6125        2.9527
         8220.5       50.4574       97.5364        2.9510
         8221.0       50.4550       97.4427        2.9528
         8221.5       50.4518       97.3445        2.9544
         8222.0       50.4497       97.2644        2.9518
         8222.5       50.4505       97.2165        2.9489
         8223.0       50.4545       97.1932        2.9503
         8223.5       50.4604       97.1742        2.9538
         8224.0       50.4660       97.1477        2.9578
         8224.5       50.4695       97.1166        2.9636
         8225.0       50.4709       97.0880        2.9678
         8225.5       50.4709       97.0595        2.9672
         8226.0       50.4703       97.0222        2.9641
         8226.5       50.4693       96.9740        2.9626
         8227.0       50.4676       96.9276        2.9613
         8227.5       50.4648       96.9044        2.9571
         8228.0       50.4617       96.9185        2.9515
         8228.5       50.4600       96.9668        2.9502
         8229.0       50.4618       97.0361        2.9556
         8229.5       50.4676       97.1151        2.9651
         8230.0       50.4772       97.2003        2.9737
         8230.5       50.4901       97.2889        2.9771
         8231.0       50.5065       97.3706        2.9752
         8231.5       50.5266       97.4272        2.9709
         8232.0       50.5496       97.4422        2.9661
         8232.5       50.5734       97.4116        2.9614
         8233.0       50.5947       97.3456        2.9609
         8233.5       50.6112       97.2591        2.9653
         8234.0       50.6217       97.1601        2.9688
         8234.5       50.6267       97.0510        2.9670
         8235.0       50.6263       96.9385        2.9638
         8235.5       50.6192       96.8363        2.9664
         8236.0       50.6044       96.7564        2.9761
         8236.5       50.5830       96.6967        2.9847
         8237.0       50.5575       96.6422        2.9843
         8237.5       50.5299       96.5808        2.9803
         8238.0       50.5017       96.5216        2.9787
         8238.5       50.4775       96.4996        2.9728
         8239.0       50.4725       96.5632        2.9590
         8239.5       50.5193       96.7528        2.9449
         8240.0       50.6617       97.0893        2.9371
         8240.5       50.9348       97.5801        2.9349
         8241.0       51.3434       98.2316        2.9354
         8241.5       51.8514       99.0447        2.9308
         8242.0       52.3890       99.9921        2.9048
         8242.5       52.8767      101.0002        2.8489
         8243.0       53.2512      101.9567        2.7812
         8243.5       53.4746      102.7410        2.7280
         8244.0       53.5263      103.2557        2.7060
         8244.5       53.3919      103.4480        2.7240
         8245.0       53.0678      103.3156        2.7794
         8245.5       52.5781      102.8982        2.8497
         8246.0       51.9840      102.2594        2.9060
         8246.5       51.3729      101.4692        2.9385
         8247.0       50.8282      100.5993        2.9534
         8247.5       50.4029       99.7236        2.9590
         8248.0       50.1116       98.9169        2.9611
         8248.5       49.9413       98.2415        2.9640
         8249.0       49.8705       97.7316        2.9683
         8249.5       49.8777       97.3865        2.9705
         8250.0       49.9375       97.1756        2.9690
         8250.5       50.0202       97.0589        2.9657
         8251.0       50.1020       97.0087        2.9634
