~Version Information Block
VERS .                 2.00:  CWLS LOG ASCII STANDARD - VERSION 2.00
WRAP .                   NO:  One line per depth step
~Well Information Block
#MNEM.UNIT        Data Type   Information
#---------- ----------------  -----------
STRT .F                23.5:  START DEPTH
STOP .F               17600:  STOP DEPTH
STEP .F                 0.5:  STEP
NULL .              -999.25:  NULL VALUE
COMP .                     :  COMPANY
WELL .             	   :  WELL
FLD  .                     :  FIELD
LOC  .                     :  LOCATION
PROV .                     :  PROVINCE
UWI  .                     :  UNIQUE WELL ID
SRVC .                     :  SERVICE COMPANY
DATE .                     :  LOG DATE
~Curve Information Block
#MNEM.UNIT         API CODE   Curve Description
#---------- ----------------  -----------------
DEPTH.F                    :  Depth track
DT   .US/F                 :  P-wave Sonic  
DTSM .US/F                 :  S-wave Sonic
RHOB_BA.G/C3               :  Density
~Parameter Information Block
#MNEM.UNIT            Value   Description
#---------- ----------------  -----------
SET  .                  GTD:  
~Other Information Block
~A        DEPTH             DT           DTSM        RHOB_BA 
# ...
         5836.5       94.1730      193.8137        2.1545
         5837.0       92.7647      192.9564        2.1667
         5837.5       91.3104      192.2586        2.1824
         5838.0       90.0494      191.8001        2.2025
         5838.5       89.2569      191.7004        2.2273
         5839.0       89.1430      192.0651        2.2505
         5839.5       89.7785      192.8992        2.2610
         5840.0       91.0888      194.0818        2.2490
         5840.5       92.9327      195.4188        2.2138
         5841.0       95.1643      196.7374        2.1655
         5841.5       97.5860      197.9442        2.1174
         5842.0       99.9031      199.0008        2.0803
         5842.5      101.7522      199.8602        2.0582
         5843.0      102.8036      200.4224        2.0503
         5843.5      102.8620      200.5670        2.0546
         5844.0      101.9189      200.2299        2.0697
         5844.5      100.1702      199.4652        2.0941
         5845.0       97.9907      198.4512        2.1247
         5845.5       95.8401      197.4305        2.1584
         5846.0       94.1037      196.6313        2.1921
         5846.5       92.9828      196.2012        2.2203
         5847.0       92.5116      196.1815        2.2330
         5847.5       92.6615      196.5351        2.2216
         5848.0       93.4624      197.1841        2.1914
         5848.5       94.9952      198.0531        2.1575
         5849.0       97.2552      199.0867        2.1318
         5849.5      100.0079      200.2414        2.1145
         5850.0      102.8025      201.4652        2.0971
         5850.5      105.1751      202.6861        2.0727
         5851.0      106.8518      203.8172        2.0432
         5851.5      107.7716      204.7694        2.0178
         5852.0      107.9552      205.4771        2.0052
         5852.5      107.3954      205.9292        2.0096
         5853.0      106.1009      206.1784        2.0296
         5853.5      104.2082      206.3075        2.0607
         5854.0      101.9882      206.3715        2.0988
         5854.5       99.7338      206.3597        2.1390
         5855.0       97.6375      206.2421        2.1724
         5855.5       95.7623      206.0540        2.1890
         5856.0       94.1217      205.9291        2.1867
         5856.5       92.7956      206.0037        2.1747
         5857.0       91.9448      206.3275        2.1672
         5857.5       91.6733      206.8692        2.1726
         5858.0       91.8956      207.5267        2.1897
         5858.5       92.3628      208.1493        2.2072
         5859.0       92.8473      208.5772        2.2111
         5859.5       93.3011      208.7095        2.1964
         5860.0       93.8259      208.5287        2.1709
         5860.5       94.5223      208.0504        2.1482
         5861.0       95.3565      207.2950        2.1353
         5861.5       96.1519      206.3028        2.1308
         5862.0       96.6999      205.1605        2.1306
         5862.5       96.8941      203.9741        2.1331
         5863.0       96.7827      202.7749        2.1380
         5863.5       96.4511      201.4858        2.1442
         5864.0       95.8947      200.0008        2.1501
         5864.5       95.0484      198.3170        2.1543
         5865.0       93.9139      196.5601        2.1567
         5865.5       92.6171      194.8725        2.1615
         5866.0       91.3228      193.1934        2.1752
         5866.5       90.1268      191.1466        2.1995
         5867.0       89.0263      188.2859        2.2277
         5867.5       87.9780      184.4871        2.2483
         5868.0       86.9947      180.0938        2.2555
         5868.5       86.1716      175.6467        2.2532
         5869.0       85.6269      171.4756        2.2491
         5869.5       85.3955      167.6078        2.2471
         5870.0       85.3811      164.0334        2.2467
         5870.5       85.4298      160.9860        2.2475
         5871.0       85.4350      158.9267        2.2485
         5871.5       85.3830      158.2959        2.2492
         5872.0       85.3089      159.3094        2.2498
         5872.5       85.2397      161.9162        2.2509
         5873.0       85.1815      165.8576        2.2526
         5873.5       85.1158      170.7388        2.2539
         5874.0       85.0173      176.1033        2.2539
         5874.5       84.8727      181.4927        2.2531
         5875.0       84.6921      186.5270        2.2528
         5875.5       84.5051      190.9846        2.2544
         5876.0       84.3390      194.7748        2.2581
         5876.5       84.2040      197.8040        2.2630
         5877.0       84.0942      199.9106        2.2676
         5877.5       84.0056      200.9912        2.2700
         5878.0       83.9506      201.2010        2.2694
         5878.5       83.9529      200.9734        2.2665
         5879.0       84.0261      200.8088        2.2633
         5879.5       84.1445      201.0355        2.2611
         5880.0       84.2393      201.7269        2.2596
         5880.5       84.2333      202.7633        2.2581
         5881.0       84.0879      203.9419        2.2564
         5881.5       83.8290      205.0893        2.2565
         5882.0       83.5270      206.1108        2.2609
         5882.5       83.2561      206.9742        2.2696
         5883.0       83.0660      207.6110        2.2799
         5883.5       82.9792      207.8981        2.2877
         5884.0       83.0057      207.7354        2.2898
         5884.5       83.1529      207.1455        2.2854
         5885.0       83.4304      206.3228        2.2761
         5885.5       83.8322      205.5483        2.2647
         5886.0       84.3241      205.0470        2.2544
         5886.5       84.8388      204.8466        2.2476
         5887.0       85.2847      204.7580        2.2443
         5887.5       85.5732      204.5009        2.2428
         5888.0       85.6461      203.8477        2.2419
         5888.5       85.5116      202.7233        2.2415
         5889.0       85.2443      201.2041        2.2434
         5889.5       84.9388      199.4605        2.2487
         5890.0       84.6560      197.6719        2.2574
         5890.5       84.4041      195.9073        2.2666
         5891.0       84.1703      194.0920        2.2723
         5891.5       83.9614      192.0921        2.2726
         5892.0       83.8128      189.8723        2.2690
         5892.5       83.7616      187.5427        2.2651
         5893.0       83.8096      185.2418        2.2630
         5893.5       83.9158      183.0157        2.2627
         5894.0       84.0196      180.8106        2.2627
         5894.5       84.0803      178.6497        2.2624
         5895.0       84.0977      176.7792        2.2622
         5895.5       84.0918      175.5703        2.2624
         5896.0       84.0756      175.2701        2.2628
         5896.5       84.0348      175.8363        2.2632
         5897.0       83.9424      176.9999        2.2634
         5897.5       83.7873      178.3917        2.2636
         5898.0       83.5877      179.6113        2.2642
         5898.5       83.3818      180.2807        2.2664
         5899.0       83.1969      180.1142        2.2709
         5899.5       83.0341      179.0105        2.2767
         5900.0       82.8922      177.0657        2.2812
         5900.5       82.8046      174.5120        2.2823
         5901.0       82.8453      171.6319        2.2807
         5901.5       83.0597      168.7086        2.2788
         5902.0       83.3947      166.0384        2.2771
         5902.5       83.7203      163.9197        2.2728
         5903.0       83.9410      162.5773        2.2630
         5903.5       84.0853      162.0495        2.2513
         5904.0       84.2498      162.1496        2.2455
         5904.5       84.4714      162.6094        2.2505
         5905.0       84.6704      163.2280        2.2612
