~Version Information Block
VERS .                 2.00:  CWLS LOG ASCII STANDARD - VERSION 2.00
WRAP .                   NO:  One line per depth step
~Well Information Block
#MNEM.UNIT        Data Type   Information
#---------- ----------------  -----------
STRT .F                23.5:  START DEPTH
STOP .F               17600:  STOP DEPTH
STEP .F                 0.5:  STEP
NULL .              -999.25:  NULL VALUE
COMP .                     :  COMPANY
WELL .             	   :  WELL
FLD  .                     :  FIELD
LOC  .                     :  LOCATION
PROV .                     :  PROVINCE
UWI  .                     :  UNIQUE WELL ID
SRVC .                     :  SERVICE COMPANY
DATE .                     :  LOG DATE
~Curve Information Block
#MNEM.UNIT         API CODE   Curve Description
#---------- ----------------  -----------------
DEPTH.F                    :  Depth track
DT   .US/F                 :  P-wave Sonic  
DTSM .US/F                 :  S-wave Sonic
RHOB_BA.G/C3               :  Density
~Parameter Information Block
#MNEM.UNIT            Value   Description
#---------- ----------------  -----------
SET  .                  GTD:  
~Other Information Block
~A        DEPTH             DT           DTSM        RHOB_BA 
# ...
         4663.5       56.1167      182.2191        2.6307
         4664.0       56.0929      182.1954        2.6309
         4664.5       56.0657      182.1635        2.6310
         4665.0       56.0372      182.1030        2.6313
         4665.5       56.0091      181.9087        2.6320
         4666.0       55.9789      181.4642        2.6331
         4666.5       55.9425      180.7462        2.6341
         4667.0       55.8999      179.8479        2.6346
         4667.5       55.8620      178.9098        2.6348
         4668.0       55.8448      178.0360        2.6353
         4668.5       55.8566      177.2587        2.6365
         4669.0       55.8905      176.5751        2.6376
         4669.5       55.9297      176.0039        2.6373
         4670.0       55.9621      175.6038        2.6348
         4670.5       55.9878      175.4369        2.6313
         4671.0       56.0133      175.5113        2.6289
         4671.5       56.0402      175.7762        2.6285
         4672.0       56.0599      176.1559        2.6297
         4672.5       56.0612      176.5761        2.6313
         4673.0       56.0427      176.9718        2.6325
         4673.5       56.0159      177.2922        2.6334
         4674.0       55.9975      177.5379        2.6342
         4674.5       55.9972      177.7855        2.6345
         4675.0       56.0153      178.1814        2.6341
         4675.5       56.0470      178.8662        2.6330
         4676.0       56.0857      179.9099        2.6314
         4676.5       56.1227      181.3010        2.6299
         4677.0       56.1481      182.9780        2.6286
         4677.5       56.1606      184.8733        2.6277
         4678.0       56.1771      186.9085        2.6275
         4678.5       56.2301      188.9741        2.6284
         4679.0       56.3494      190.8903        2.6305
         4679.5       56.5446      192.4269        2.6322
         4680.0       56.8017      193.3830        2.6306
         4680.5       57.0932      193.6521        2.6236
         4681.0       57.3881      193.2397        2.6121
         4681.5       57.6529      192.2050        2.5995
         4682.0       57.8518      190.6241        2.5895
         4682.5       57.9531      188.6166        2.5841
         4683.0       57.9403      186.3909        2.5844
         4683.5       57.8166      184.2374        2.5906
         4684.0       57.6020      182.4227        2.6018
         4684.5       57.3240      181.1168        2.6147
         4685.0       57.0127      180.4108        2.6251
         4685.5       56.7016      180.3992        2.6305
         4686.0       56.4289      181.2376        2.6316
         4686.5       56.2272      183.0494        2.6309
         4687.0       56.1086      185.7735        2.6305
         4687.5       56.0584      189.1010        2.6309
         4688.0       56.0476      192.6114        2.6317
         4688.5       56.0521      195.9629        2.6326
         4689.0       56.0627      198.9699        2.6331
         4689.5       56.0800      201.5425        2.6330
         4690.0       56.1052      203.5760        2.6322
         4690.5       56.1355      204.9507        2.6309
         4691.0       56.1662      205.6098        2.6293
         4691.5       56.1941      205.6143        2.6279
         4692.0       56.2191      205.0968        2.6271
         4692.5       56.2411      204.1583        2.6271
         4693.0       56.2563      202.8316        2.6279
         4693.5       56.2574      201.1169        2.6288
         4694.0       56.2395      199.0488        2.6291
         4694.5       56.2046      196.7002        2.6288
         4695.0       56.1606      194.1313        2.6285
         4695.5       56.1166      191.3793        2.6291
         4696.0       56.0764      188.5021        2.6306
         4696.5       56.0388      185.6320        2.6324
         4697.0       56.0014      182.9554        2.6339
         4697.5       55.9669      180.6467        2.6347
         4698.0       55.9431      178.8127        2.6350
         4698.5       55.9376      177.4871        2.6349
         4699.0       55.9516      176.6748        2.6346
         4699.5       55.9805      176.3788        2.6339
         4700.0       56.0176      176.6001        2.6328
         4700.5       56.0589      177.3131        2.6315
         4701.0       56.1029      178.4455        2.6303
         4701.5       56.1487      179.8749        2.6294
         4702.0       56.1943      181.4354        2.6290
         4702.5       56.2362      182.9498        2.6286
         4703.0       56.2708      184.2643        2.6282
         4703.5       56.2972      185.2797        2.6275
         4704.0       56.3174      185.9645        2.6268
         4704.5       56.3338      186.3387        2.6264
         4705.0       56.3478      186.4330        2.6262
         4705.5       56.3587      186.2519        2.6262
         4706.0       56.3639      185.7923        2.6263
         4706.5       56.3596      185.1052        2.6264
         4707.0       56.3414      184.3422        2.6265
         4707.5       56.3089      183.7300        2.6265
         4708.0       56.2677      183.4715        2.6267
         4708.5       56.2295      183.6541        2.6275
         4709.0       56.2060      184.2351        2.6291
         4709.5       56.2029      185.1023        2.6311
         4710.0       56.2176      186.1493        2.6326
         4710.5       56.2449      187.2917        2.6323
         4711.0       56.2842      188.4312        2.6301
         4711.5       56.3409      189.4251        2.6270
         4712.0       56.4203      190.1012        2.6243
         4712.5       56.5185      190.3205        2.6225
         4713.0       56.6198      190.0308        2.6215
         4713.5       56.7053      189.2937        2.6205
         4714.0       56.7630      188.2730        2.6191
         4714.5       56.7933      187.1878        2.6176
         4715.0       56.8042      186.2575        2.6167
         4715.5       56.8032      185.6655        2.6170
         4716.0       56.7932      185.5681        2.6181
         4716.5       56.7752      186.0891        2.6196
         4717.0       56.7529      187.2862        2.6208
         4717.5       56.7288      189.1095        2.6217
         4718.0       56.6980      191.3839        2.6220
         4718.5       56.6541      193.8653        2.6218
         4719.0       56.6061      196.3256        2.6209
         4719.5       56.5852      198.6219        2.6204
         4720.0       56.6286      200.6904        2.6216
         4720.5       56.7515      202.4744        2.6248
         4721.0       56.9313      203.8849        2.6270
         4721.5       57.1156      204.8533        2.6243
         4722.0       57.2518      205.4259        2.6154
         4722.5       57.3143      205.7663        2.6038
         4723.0       57.3078      206.0458        2.5950
         4723.5       57.2500      206.3314        2.5933
         4724.0       57.1468      206.5725        2.5997
         4724.5       56.9900      206.6802        2.6119
         4725.0       56.7751      206.5907        2.6255
         4725.5       56.5193      206.2799        2.6357
         4726.0       56.2633      205.7351        2.6400
         4726.5       56.0561      204.9176        2.6392
         4727.0       55.9344      203.7532        2.6362
         4727.5       55.9049      202.1570        2.6335
         4728.0       55.9415      200.0812        2.6319
         4728.5       56.0036      197.5562        2.6313
         4729.0       56.0594      194.7088        2.6307
         4729.5       56.0982      191.7333        2.6303
         4730.0       56.1245      188.8235        2.6302
         4730.5       56.1450      186.0883        2.6303
         4731.0       56.1601      183.5287        2.6305
         4731.5       56.1592      181.1203        2.6302
         4732.0       56.1283      178.9268        2.6294
