~Version Information Block
VERS .                 2.00:  CWLS LOG ASCII STANDARD - VERSION 2.00
WRAP .                   NO:  One line per depth step
~Well Information Block
#MNEM.UNIT        Data Type   Information
#---------- ----------------  -----------
STRT .F                23.5:  START DEPTH
STOP .F               17600:  STOP DEPTH
STEP .F                 0.5:  STEP
NULL .              -999.25:  NULL VALUE
COMP .                     :  COMPANY
WELL .             	   :  WELL
FLD  .                     :  FIELD
LOC  .                     :  LOCATION
PROV .                     :  PROVINCE
UWI  .                     :  UNIQUE WELL ID
SRVC .                     :  SERVICE COMPANY
DATE .                     :  LOG DATE
~Curve Information Block
#MNEM.UNIT         API CODE   Curve Description
#---------- ----------------  -----------------
DEPTH.F                    :  Depth track
DT   .US/F                 :  P-wave Sonic  
DTSM .US/F                 :  S-wave Sonic
RHOB_BA.G/C3               :  Density
~Parameter Information Block
#MNEM.UNIT            Value   Description
#---------- ----------------  -----------
SET  .                  GTD:  
~Other Information Block
~A        DEPTH             DT           DTSM        RHOB_BA 
# ...
        13978.5       46.0724       88.0264        2.8516
        13979.0       45.9352       87.5715        2.8582
        13979.5       45.8704       87.0615        2.8595
        13980.0       45.8881       86.5209        2.8563
        13980.5       45.9918       86.0058        2.8545
        13981.0       46.1668       85.5767        2.8581
        13981.5       46.3812       85.2767        2.8599
        13982.0       46.5970       85.1320        2.8504
        13982.5       46.7784       85.1622        2.8342
        13983.0       46.8951       85.3774        2.8248
        13983.5       46.9286       85.7566        2.8255
        13984.0       46.8790       86.2245        2.8294
        13984.5       46.7646       86.6658        2.8331
        13985.0       46.6115       86.9781        2.8389
        13985.5       46.4410       87.1237        2.8497
        13986.0       46.2670       87.1343        2.8627
        13986.5       46.1004       87.0696        2.8686
        13987.0       45.9537       86.9784        2.8654
        13987.5       45.8400       86.8939        2.8621
        13988.0       45.7667       86.8532        2.8616
        13988.5       45.7307       86.9020        2.8583
        13989.0       45.7203       87.0624        2.8516
        13989.5       45.7243       87.2964        2.8461
        13990.0       45.7376       87.5121        2.8441
        13990.5       45.7627       87.6256        2.8452
        13991.0       45.8110       87.6270        2.8454
        13991.5       45.9019       87.5866        2.8402
        13992.0       46.0485       87.5957        2.8331
        13992.5       46.2399       87.7031        2.8332
        13993.0       46.4411       87.9079        2.8418
        13993.5       46.6123       88.1865        2.8493
        13994.0       46.7294       88.5019        2.8470
        13994.5       46.7855       88.7900        2.8345
        13995.0       46.7800       88.9578        2.8173
        13995.5       46.7104       88.9148        2.8073
        13996.0       46.5773       88.6143        2.8119
        13996.5       46.3984       88.0739        2.8264
        13997.0       46.2153       87.3607        2.8426
        13997.5       46.0827       86.5619        2.8553
        13998.0       46.0428       85.7796        2.8621
        13998.5       46.1058       85.1455        2.8666
        13999.0       46.2515       84.8150        2.8738
        13999.5       46.4427       84.9105        2.8767
        14000.0       46.6369       85.4442        2.8661
        14000.5       46.7922       86.2881        2.8466
        14001.0       46.8766       87.2221        2.8280
        14001.5       46.8747       88.0164        2.8147
        14002.0       46.7878       88.4882        2.8102
        14002.5       46.6295       88.5299        2.8166
        14003.0       46.4280       88.1264        2.8273
        14003.5       46.2293       87.3579        2.8336
        14004.0       46.0878       86.3895        2.8385
        14004.5       46.0438       85.4398        2.8478
        14005.0       46.1015       84.7282        2.8591
        14005.5       46.2269       84.4077        2.8689
        14006.0       46.3679       84.5162        2.8757
        14006.5       46.4840       84.9730        2.8732
        14007.0       46.5621       85.6188        2.8556
        14007.5       46.6120       86.2838        2.8326
        14008.0       46.6436       86.8524        2.8197
        14008.5       46.6524       87.2915        2.8202
        14009.0       46.6276       87.6232        2.8247
        14009.5       46.5753       87.8710        2.8274
        14010.0       46.5270       88.0361        2.8324
        14010.5       46.5196       88.1150        2.8412
        14011.0       46.5680       88.1325        2.8449
        14011.5       46.6557       88.1419        2.8358
        14012.0       46.7483       88.1908        2.8207
        14012.5       46.8153       88.2795        2.8113
        14013.0       46.8416       88.3432        2.8104
        14013.5       46.8282       88.2811        2.8139
        14014.0       46.7882       88.0157        2.8185
        14014.5       46.7453       87.5494        2.8207
        14015.0       46.7348       86.9831        2.8187
        14015.5       46.8002       86.4927        2.8151
        14016.0       46.9792       86.2747        2.8146
        14016.5       47.2836       86.4692        2.8180
        14017.0       47.6941       87.0941        2.8225
        14017.5       48.1707       88.0339        2.8277
        14018.0       48.6677       89.1012        2.8336
        14018.5       49.1389       90.1345        2.8326
        14019.0       49.5442       91.0592        2.8148
        14019.5       49.8624       91.8822        2.7825
        14020.0       50.1005       92.6356        2.7486
        14020.5       50.2897       93.3282        2.7291
        14021.0       50.4703       93.9445        2.7249
        14021.5       50.6757       94.4831        2.7251
        14022.0       50.9228       94.9857        2.7289
        14022.5       51.2109       95.5230        2.7441
        14023.0       51.5258       96.1486        2.7626
        14023.5       51.8455       96.8673        2.7697
        14024.0       52.1456       97.6418        2.7595
        14024.5       52.4045       98.4258        2.7280
        14025.0       52.6093       99.1899        2.6807
        14025.5       52.7558       99.9206        2.6479
        14026.0       52.8410      100.6024        2.6532
        14026.5       52.8606      101.2040        2.6841
        14027.0       52.8182      101.6836        2.7081
        14027.5       52.7334      102.0095        2.7087
        14028.0       52.6363      102.1747        2.6950
        14028.5       52.5456      102.1923        2.6802
        14029.0       52.4523      102.0765        2.6643
        14029.5       52.3238      101.8325        2.6465
        14030.0       52.1277      101.4648        2.6385
        14030.5       51.8595      100.9921        2.6463
        14031.0       51.5499      100.4514        2.6581
        14031.5       51.2434       99.8835        2.6670
        14032.0       50.9685       99.3133        2.6800
        14032.5       50.7291       98.7413        2.7003
        14033.0       50.5216       98.1603        2.7215
        14033.5       50.3538       97.5841        2.7379
        14034.0       50.2412       97.0611        2.7428
        14034.5       50.1881       96.6545        2.7362
        14035.0       50.1775       96.4077        2.7212
        14035.5       50.1825       96.3206        2.7078
        14036.0       50.1860       96.3576        2.7012
        14036.5       50.1880       96.4754        2.6979
        14037.0       50.1936       96.6485        2.6938
        14037.5       50.1951       96.8682        2.6903
        14038.0       50.1707       97.1160        2.6921
        14038.5       50.0992       97.3397        2.7001
        14039.0       49.9768       97.4630        2.7091
        14039.5       49.8187       97.4296        2.7160
        14040.0       49.6487       97.2416        2.7230
        14040.5       49.4901       96.9601        2.7274
        14041.0       49.3621       96.6643        2.7232
        14041.5       49.2801       96.4104        2.7153
        14042.0       49.2525       96.2198        2.7113
        14042.5       49.2757       96.0939        2.7101
        14043.0       49.3342       96.0329        2.7091
        14043.5       49.4095       96.0394        2.7093
        14044.0       49.4901       96.1094        2.7111
        14044.5       49.5740       96.2289        2.7146
        14045.0       49.6611       96.3808        2.7194
        14045.5       49.7457       96.5530        2.7222
        14046.0       49.8193       96.7447        2.7210
        14046.5       49.8777       96.9661        2.7190
        14047.0       49.9251       97.2301        2.7183
