~Version Information Block
VERS .                 2.00:  CWLS LOG ASCII STANDARD - VERSION 2.00
WRAP .                   NO:  One line per depth step
~Well Information Block
#MNEM.UNIT        Data Type   Information
#---------- ----------------  -----------
STRT .F                23.5:  START DEPTH
STOP .F               17600:  STOP DEPTH
STEP .F                 0.5:  STEP
NULL .              -999.25:  NULL VALUE
COMP .                     :  COMPANY
WELL .             	   :  WELL
FLD  .                     :  FIELD
LOC  .                     :  LOCATION
PROV .                     :  PROVINCE
UWI  .                     :  UNIQUE WELL ID
SRVC .                     :  SERVICE COMPANY
DATE .                     :  LOG DATE
~Curve Information Block
#MNEM.UNIT         API CODE   Curve Description
#---------- ----------------  -----------------
DEPTH.F                    :  Depth track
DT   .US/F                 :  P-wave Sonic  
DTSM .US/F                 :  S-wave Sonic
RHOB_BA.G/C3               :  Density
~Parameter Information Block
#MNEM.UNIT            Value   Description
#---------- ----------------  -----------
SET  .                  GTD:  
~Other Information Block
~A        DEPTH             DT           DTSM        RHOB_BA 
# ...
        12874.5       53.8370      104.3844        2.9055
        12875.0       53.9529      104.0890        2.9279
        12875.5       54.0655      103.8844        2.9120
        12876.0       54.0687      103.5166        2.8746
        12876.5       53.8919      102.8241        2.8406
        12877.0       53.5004      101.7701        2.8249
        12877.5       52.8983      100.4236        2.8291
        12878.0       52.1259       98.9027        2.8412
        12878.5       51.2485       97.3214        2.8456
        12879.0       50.3413       95.7674        2.8423
        12879.5       49.4882       94.3174        2.8427
        12880.0       48.7786       93.0746        2.8471
        12880.5       48.3162       92.2067        2.8436
        12881.0       48.2638       91.9893        2.8309
        12881.5       48.8669       92.8343        2.8224
        12882.0       50.4179       95.2361        2.8240
        12882.5       53.1663       99.6156        2.8268
        12883.0       57.2210      106.1530        2.8210
        12883.5       62.4976      114.7339        2.7964
        12884.0       68.7225      125.0131        2.7284
        12884.5       75.4661      136.4863        2.6114
        12885.0       82.1610      148.4666        2.4888
        12885.5       88.1231      160.0129        2.4090
        12886.0       92.6336      169.9207        2.3854
        12886.5       95.0990      176.8907        2.3980
        12887.0       95.2422      179.9272        2.4212
        12887.5       93.1995      178.7506        2.4484
        12888.0       89.4537      173.9057        2.4980
        12888.5       84.6511      166.4639        2.5925
        12889.0       79.4300      157.5799        2.7158
        12889.5       74.3426      148.2364        2.8003
        12890.0       69.8273      139.2262        2.8142
        12890.5       66.1870      131.2025        2.7889
        12891.0       63.5417      124.6554        2.7642
        12891.5       61.7796      119.8073        2.7513
        12892.0       60.5963      116.5193        2.7356
        12892.5       59.6256      114.3045        2.7177
        12893.0       58.5806      112.5140        2.7159
        12893.5       57.3304      110.6043        2.7453
        12894.0       55.8951      108.3099        2.7955
        12894.5       54.3911      105.6321        2.8321
        12895.0       52.9681      102.7308        2.8353
        12895.5       51.7609       99.8509        2.8235
        12896.0       50.8543       97.2500        2.8186
        12896.5       50.2550       95.1113        2.8169
        12897.0       49.8868       93.4941        2.8097
        12897.5       49.6210       92.3473        2.8005
        12898.0       49.3354       91.5603        2.7971
        12898.5       48.9645       91.0070        2.8019
        12899.0       48.5066       90.5794        2.8085
        12899.5       47.9955       90.2187        2.8090
        12900.0       47.4789       89.9298        2.8051
        12900.5       47.0322       89.7713        2.8050
        12901.0       46.7748       89.8391        2.8131
        12901.5       46.8565       90.2683        2.8264
        12902.0       47.4274       91.2437        2.8392
        12902.5       48.5995       92.9738        2.8476
        12903.0       50.4035       95.6195        2.8523
        12903.5       52.7518       99.2116        2.8525
        12904.0       55.4299      103.5930        2.8389
        12904.5       58.1292      108.4040        2.8020
        12905.0       60.5108      113.1260        2.7488
        12905.5       62.2767      117.1820        2.6973
        12906.0       63.2221      120.0618        2.6542
        12906.5       63.2585      121.4270        2.6291
        12907.0       62.4117      121.1611        2.6453
        12907.5       60.8106      119.3632        2.7086
        12908.0       58.6730      116.3016        2.7878
        12908.5       56.2784      112.3540        2.8453
        12909.0       53.9223      107.9561        2.8774
        12909.5       51.8639      103.5640        2.8916
        12910.0       50.2875       99.6119        2.8854
        12910.5       49.2784       96.4392        2.8641
        12911.0       48.8027       94.2071        2.8431
        12911.5       48.7175       92.8650        2.8305
        12912.0       48.8334       92.2050        2.8206
        12912.5       48.9952       91.9803        2.8085
        12913.0       49.1318       92.0229        2.7970
        12913.5       49.2601       92.2972        2.7907
        12914.0       49.4642       92.8835        2.7878
        12914.5       49.8676       93.9399        2.7869
        12915.0       50.5967       95.6634        2.7880
        12915.5       51.7459       98.2382        2.7893
        12916.0       53.3583      101.7689        2.7950
        12916.5       55.4236      106.2233        2.8137
        12917.0       57.8875      111.4270        2.8383
        12917.5       60.6670      117.1444        2.8383
        12918.0       63.6465      123.2106        2.7906
        12918.5       66.6507      129.6037        2.7136
        12919.0       69.4565      136.3727        2.6565
        12919.5       71.8613      143.4686        2.6516
        12920.0       73.7567      150.6074        2.6865
        12920.5       75.1226      157.2718        2.7014
        12921.0       75.9342      162.8376        2.6504
        12921.5       76.0902      166.7229        2.5622
        12922.0       75.4621      168.4880        2.4932
        12922.5       74.0327      167.8989        2.4710
        12923.0       71.9889      164.9810        2.5020
        12923.5       69.6794      160.0525        2.5828
        12924.0       67.4777      153.7011        2.7061
        12924.5       65.6537      146.7043        2.8213
        12925.0       64.3332      139.9171        2.8960
        12925.5       63.5414      134.1616        2.9027
        12926.0       63.2706      130.1166        2.8712
        12926.5       63.5101      128.1836        2.8138
        12927.0       64.2177      128.3574        2.7633
        12927.5       65.2837      130.1988        2.7280
        12928.0       66.5256      132.9805        2.6971
        12928.5       67.7459      135.9608        2.6715
        12929.0       68.8398      138.6417        2.6710
        12929.5       69.8600      140.8727        2.7085
        12930.0       70.9795      142.7625        2.7637
        12930.5       72.3531      144.4949        2.8031
        12931.0       73.9648      146.1816        2.8054
        12931.5       75.5835      147.8043        2.7666
        12932.0       76.8739      149.2234        2.7018
        12932.5       77.5688      150.2086        2.6352
        12933.0       77.5434      150.4758        2.5870
        12933.5       76.7668      149.7466        2.5716
        12934.0       75.2309      147.8270        2.5963
        12934.5       72.9572      144.6700        2.6618
        12935.0       70.0710      140.3997        2.7627
        12935.5       66.8457      135.3086        2.8579
        12936.0       63.6616      129.8356        2.9021
        12936.5       60.8918      124.5098        2.8881
        12937.0       58.7944      119.8573        2.8479
        12937.5       57.4743      116.2928        2.8242
        12938.0       56.9040      114.0378        2.8426
        12938.5       56.9758      113.0914        2.8884
        12939.0       57.5381      113.2659        2.9271
        12939.5       58.4136      114.2719        2.9456
        12940.0       59.4212      115.8034        2.9444
        12940.5       60.3997      117.5726        2.9159
        12941.0       61.2118      119.2876        2.8691
        12941.5       61.7309      120.6279        2.8332
        12942.0       61.8450      121.2748        2.8194
        12942.5       61.4812      120.9955        2.8191
        12943.0       60.6357      119.7236        2.8278
