~Version Information Block
VERS .                 2.00:  CWLS LOG ASCII STANDARD - VERSION 2.00
WRAP .                   NO:  One line per depth step
~Well Information Block
#MNEM.UNIT        Data Type   Information
#---------- ----------------  -----------
STRT .F                23.5:  START DEPTH
STOP .F               17600:  STOP DEPTH
STEP .F                 0.5:  STEP
NULL .              -999.25:  NULL VALUE
COMP .                     :  COMPANY
WELL .             	   :  WELL
FLD  .                     :  FIELD
LOC  .                     :  LOCATION
PROV .                     :  PROVINCE
UWI  .                     :  UNIQUE WELL ID
SRVC .                     :  SERVICE COMPANY
DATE .                     :  LOG DATE
~Curve Information Block
#MNEM.UNIT         API CODE   Curve Description
#---------- ----------------  -----------------
DEPTH.F                    :  Depth track
DT   .US/F                 :  P-wave Sonic  
DTSM .US/F                 :  S-wave Sonic
RHOB_BA.G/C3               :  Density
~Parameter Information Block
#MNEM.UNIT            Value   Description
#---------- ----------------  -----------
SET  .                  GTD:  
~Other Information Block
~A        DEPTH             DT           DTSM        RHOB_BA 
# ...
        17497.5       58.2587       89.1997        2.5400
        17498.0       57.9897       88.6730        2.5450
        17498.5       57.8747       88.2606        2.5480
        17499.0       57.8915       87.9130        2.5460
        17499.5       57.9948       87.6285        2.5380
        17500.0       58.1266       87.4315        2.5300
        17500.5       58.2352       87.3261        2.5280
        17501.0       58.2900       87.2773        2.5320
        17501.5       58.2789       87.2332        2.5420
        17502.0       58.1980       87.1701        2.5510
        17502.5       58.0561       87.1460        2.5560
        17503.0       57.8966       87.3134        2.5580
        17503.5       57.7978       87.8386        2.5580
        17504.0       57.8347       88.7709        2.5580
        17504.5       58.0374       89.9909        2.5590
        17505.0       58.3838       91.3192        2.5550
        17505.5       58.8322       92.6819        2.5440
        17506.0       59.3612       94.1666        2.5320
        17506.5       59.9815       95.9108        2.5180
        17507.0       60.7142       97.9506        2.5260
        17507.5       61.5537      100.1772        2.5470
        17508.0       62.4533      102.4282        2.5620
        17508.5       63.3493      104.6164        2.5660
        17509.0       64.1989      106.7701        2.5650
        17509.5       64.9859      108.9423        2.5750
        17510.0       65.6961      111.0807        2.6110
        17510.5       66.2971      112.9993        2.6830
        17511.0       66.7438      114.4804        2.7800
        17511.5       67.0020      115.3938        2.8420
        17512.0       67.0628      115.7323        2.8170
        17512.5       66.9471      115.5820        2.7430
        17513.0       66.7033      115.0725        2.6770
        17513.5       66.4016      114.3399        2.6270
        17514.0       66.1248      113.5021        2.5860
        17514.5       65.9500      112.6522        2.5610
        17515.0       65.9254      111.8817        2.5440
        17515.5       66.0545      111.3137        2.5350
        17516.0       66.3011      111.0933        2.5360
        17516.5       66.6105      111.3240        2.5410
        17517.0       66.9293      111.9974        2.5450
        17517.5       67.2138      112.9840        2.5380
        17518.0       65.8667      114.1079        2.5120
        17518.5       65.9667      115.2475        2.4910
        17519.0       66.0667      116.3810        2.4820
        17519.5       66.1667      117.5341        2.4860
        17520.0       66.1333      118.6869        2.4890
        17520.5       65.9333      119.7351        2.4890
        17521.0       65.6790      120.5438        2.4900
        17521.5       65.2346      121.0283        2.4960
        17522.0       64.7901      121.2646        2.5150
        17522.5       64.3457      121.5010        2.5920
        17523.0       64.0317      121.7374        2.6840
        17523.5       64.1746      121.9737        2.6780
        17524.0       64.3175      122.1651        2.6080
        17524.5       64.5000      122.3508        2.5520
        17525.0       65.0000      122.5365        2.5170
        17525.5       65.5000      124.1955        2.5180
        17526.0       66.0000      126.2756        2.5320
        17526.5       66.5000      128.3556        2.5310
        17527.0       67.0667      130.4355        2.5100
        17527.5       67.6667      133.5556        2.4900
        17528.0       68.3333      137.5037        2.4940
        17528.5       69.0833      139.8870        2.5120
        17529.0       69.8788      142.2704        2.5330
        17529.5       70.6970      144.6537        2.4960
        17530.0       71.5152      147.0370        2.4190
        17530.5       72.3333      149.3542        2.3630
        17531.0       73.1515      151.1417        2.3310
        17531.5       73.4445      152.9292        2.3000
        17532.0       73.5873      154.7167        2.2710
        17532.5       73.7302      155.4556        2.2540
        17533.0       73.8730      155.3556        2.2470
        17533.5       74.0159      155.2556        2.2450
        17534.0       74.1587      155.1555        2.2500
        17534.5       74.1212      155.0556        2.2610
        17535.0       73.9394      154.9556        2.2880
        17535.5       73.7576      154.0233        2.3440
        17536.0       73.5758      152.8533        2.4200
        17536.5       73.3939      151.6833        2.4720
        17537.0       73.2121      150.5133        2.4810
        17537.5       73.0303      149.1917        2.4750
        17538.0       72.8485      147.5667        2.4630
        17538.5       72.6667      145.9417        2.4430
        17539.0       72.4848      144.3167        2.4330
        17539.5       71.9658      142.1019        2.4390
        17540.0       71.3504      139.7185        2.4430
        17540.5       70.7350      137.4736        2.4320
        17541.0       70.1197      136.3361        2.4080
        17541.5       69.5043      135.1986        2.3810
        17542.0       68.8889      134.0611        2.3770
        17542.5       68.2418      132.9778        2.4030
        17543.0       67.5948      131.9378        2.4490
        17543.5       66.9477      130.8978        2.4980
        17544.0       66.3007      129.8578        2.5390
        17544.5       65.6536      128.8691        2.5670
        17545.0       65.0065      128.2914        2.5830
        17545.5       64.3595      127.7136        2.5840
        17546.0       63.9298      127.1358        2.5780
        17546.5       63.7719      126.5444        2.5730
        17547.0       63.6140      125.8444        2.5700
        17547.5       63.4561      125.1444        2.5690
        17548.0       63.2982      124.4444        2.5740
        17548.5       63.1404      123.7444        2.5830
        17549.0       62.9825      123.0444        2.5920
        17549.5       62.8246      122.6644        2.6030
        17550.0       62.6667      122.9244        2.6170
        17550.5       62.8167      123.1844        2.6300
        17551.0       62.9667      123.4444        2.6350
        17551.5       63.1167      123.7044        2.6250
        17552.0       63.2667      123.9644        2.6010
        17552.5       63.4167      124.2244        2.5710
        17553.0       63.5667      125.6111        2.5460
        17553.5       63.7167      127.5611        2.5360
        17554.0       63.8667      129.5111        2.5460
        17554.5       64.0247      131.4792        2.5750
        17555.0       64.2469      133.5917        2.6020
        17555.5       64.4691      135.7042        2.6140
        17556.0       64.6914      137.8167        2.6190
        17556.5       64.9136      138.8667        2.5880
        17557.0       65.1358      139.0667        2.5320
        17557.5       65.3580      139.2667        2.5030
        17558.0       65.5802      139.4667        2.4770
        17558.5       65.7556      139.6667        2.4660
        17559.0       65.5556      139.8667        2.5010
        17559.5       65.3556      137.1306        2.5470
        17560.0       65.1556      133.5556        2.5800
        17560.5       64.9556      130.9556        2.6120
        17561.0       64.8254      128.3556        2.6280
        17561.5       64.7302      125.1056        2.6330
        17562.0       64.6349      122.9389        2.6360
        17562.5       64.5397      123.7514        2.6320
        17563.0       64.4444      124.5639        2.6300
        17563.5       64.3492      125.3764        2.6370
        17564.0       64.2540      131.6296        2.6400
        17564.5       64.1587      136.2587        2.6110
        17565.0       64.0635      139.0444        2.5480
        17565.5       64.0208      141.8302        2.4850
        17566.0       64.0833      144.5333        2.4500
