~Version Information Block
VERS .                 2.00:  CWLS LOG ASCII STANDARD - VERSION 2.00
WRAP .                   NO:  One line per depth step
~Well Information Block
#MNEM.UNIT        Data Type   Information
#---------- ----------------  -----------
STRT .F                23.5:  START DEPTH
STOP .F               17600:  STOP DEPTH
STEP .F                 0.5:  STEP
NULL .              -999.25:  NULL VALUE
COMP .                     :  COMPANY
WELL .             	   :  WELL
FLD  .                     :  FIELD
LOC  .                     :  LOCATION
PROV .                     :  PROVINCE
UWI  .                     :  UNIQUE WELL ID
SRVC .                     :  SERVICE COMPANY
DATE .                     :  LOG DATE
~Curve Information Block
#MNEM.UNIT         API CODE   Curve Description
#---------- ----------------  -----------------
DEPTH.F                    :  Depth track
DT   .US/F                 :  P-wave Sonic  
DTSM .US/F                 :  S-wave Sonic
RHOB_BA.G/C3               :  Density
~Parameter Information Block
#MNEM.UNIT            Value   Description
#---------- ----------------  -----------
SET  .                  GTD:  
~Other Information Block
~A        DEPTH             DT           DTSM        RHOB_BA 
# ...
        15151.5       44.8617       86.9396        2.8525
        15152.0       44.8547       86.4998        2.8502
        15152.5       44.7923       86.2657        2.8531
        15153.0       44.6855       86.2032        2.8551
        15153.5       44.5474       86.2458        2.8497
        15154.0       44.3888       86.3210        2.8374
        15154.5       44.2214       86.3664        2.8246
        15155.0       44.0599       86.3363        2.8173
        15155.5       43.9183       86.2093        2.8143
        15156.0       43.8079       85.9939        2.8140
        15156.5       43.7406       85.7264        2.8171
        15157.0       43.7320       85.4576        2.8208
        15157.5       43.7969       85.2405        2.8234
        15158.0       43.9437       85.1277        2.8288
        15158.5       44.1752       85.1792        2.8384
        15159.0       44.4963       85.4586        2.8459
        15159.5       44.9174       86.0044        2.8440
        15160.0       45.4447       86.7955        2.8330
        15160.5       46.0647       87.7507        2.8274
        15161.0       46.7386       88.7725        2.8418
        15161.5       47.4156       89.7949        2.8720
        15162.0       48.0547       90.7891        2.9018
        15162.5       48.6365       91.7323        2.9240
        15163.0       49.1562       92.5839        2.9401
        15163.5       49.6071       93.2948        2.9486
        15164.0       49.9741       93.8343        2.9486
        15164.5       50.2435       94.2046        2.9460
        15165.0       50.4188       94.4328        2.9478
        15165.5       50.5235       94.5512        2.9519
        15166.0       50.5896       94.5852        2.9502
        15166.5       50.6412       94.5575        2.9434
        15167.0       50.6857       94.4972        2.9381
        15167.5       50.7200       94.4399        2.9390
        15168.0       50.7411       94.4169        2.9458
        15168.5       50.7526       94.4480        2.9520
        15169.0       50.7602       94.5439        2.9516
        15169.5       50.7660       94.7073        2.9483
        15170.0       50.7685       94.9298        2.9486
        15170.5       50.7702       95.1945        2.9505
        15171.0       50.7885       95.4956        2.9494
        15171.5       50.8616       95.8550        2.9457
        15172.0       51.0348       96.3137        2.9409
        15172.5       51.3326       96.8994        2.9328
        15173.0       51.7345       97.5933        2.9170
        15173.5       52.1741       98.3207        2.8908
        15174.0       52.5626       98.9684        2.8579
        15174.5       52.8162       99.4151        2.8221
        15175.0       52.8708       99.5639        2.7878
        15175.5       52.6869       99.3629        2.7651
        15176.0       52.2501       98.8058        2.7636
        15176.5       51.5714       97.9171        2.7844
        15177.0       50.6904       96.7450        2.8181
        15177.5       49.6759       95.3702        2.8489
        15178.0       48.6222       93.9116        2.8657
        15178.5       47.6368       92.5095        2.8710
        15179.0       46.8257       91.2938        2.8721
        15179.5       46.2765       90.3560        2.8716
        15180.0       46.0382       89.7374        2.8701
        15180.5       46.1017       89.4308        2.8695
        15181.0       46.3992       89.3907        2.8684
        15181.5       46.8251       89.5448        2.8615
        15182.0       47.2702       89.8005        2.8447
        15182.5       47.6475       90.0568        2.8249
        15183.0       47.9024       90.2265        2.8171
        15183.5       48.0066       90.2644        2.8239
        15184.0       47.9452       90.1743        2.8331
        15184.5       47.7138       89.9826        2.8358
        15185.0       47.3256       89.7067        2.8357
        15185.5       46.8202       89.3432        2.8413
        15186.0       46.2603       88.8818        2.8538
        15186.5       45.7161       88.3305        2.8673
        15187.0       45.2481       87.7376        2.8779
        15187.5       44.9021       87.1929        2.8858
        15188.0       44.7151       86.8008        2.8884
        15188.5       44.7227       86.6408        2.8829
        15189.0       44.9552       86.7477        2.8753
        15189.5       45.4214       87.1279        2.8750
        15190.0       46.0927       87.7870        2.8779
        15190.5       46.9035       88.7296        2.8688
        15191.0       47.7736       89.9320        2.8476
        15191.5       48.6328       91.3198        2.8282
        15192.0       49.4315       92.7794        2.8135
        15192.5       50.1352       94.1944        2.8017
        15193.0       50.7138       95.4772        2.8000
        15193.5       51.1364       96.5755        2.8109
        15194.0       51.3802       97.4602        2.8232
        15194.5       51.4479       98.1132        2.8260
        15195.0       51.3765       98.5286        2.8236
        15195.5       51.2292       98.7216        2.8306
        15196.0       51.0730       98.7322        2.8582
        15196.5       50.9547       98.6167        2.9004
        15197.0       50.8892       98.4334        2.9370
        15197.5       50.8649       98.2291        2.9544
        15198.0       50.8601       98.0256        2.9585
        15198.5       50.8562       97.8036        2.9577
        15199.0       50.8401       97.5023        2.9520
        15199.5       50.7994       97.0525        2.9411
        15200.0       50.7183       96.4233        2.9308
        15200.5       50.5770       95.6457        2.9277
        15201.0       50.3547       94.7909        2.9299
        15201.5       50.0380       93.9286        2.9279
        15202.0       49.6278       93.1078        2.9185
        15202.5       49.1431       92.3686        2.9064
        15203.0       48.6150       91.7530        2.8920
        15203.5       48.0788       91.2922        2.8752
        15204.0       47.5687       90.9798        2.8613
        15204.5       47.1179       90.7651        2.8512
        15205.0       46.7564       90.5729        2.8383
        15205.5       46.5054       90.3318        2.8232
        15206.0       46.3732       89.9926        2.8184
        15206.5       46.3519       89.5372        2.8291
        15207.0       46.4179       88.9837        2.8404
        15207.5       46.5354       88.3846        2.8367
        15208.0       46.6658       87.8173        2.8216
        15208.5       46.7767       87.3670        2.8077
        15209.0       46.8477       87.1058        2.8013
        15209.5       46.8720       87.0775        2.8014
        15210.0       46.8569       87.2896        2.8035
        15210.5       46.8243       87.7119        2.8050
        15211.0       46.8079       88.2788        2.8070
        15211.5       46.8416       88.8940        2.8134
        15212.0       46.9442       89.4515        2.8264
        15212.5       47.1106       89.8666        2.8415
        15213.0       47.3159       90.1055        2.8498
        15213.5       47.5270       90.1932        2.8446
        15214.0       47.7136       90.1901        2.8313
        15214.5       47.8537       90.1548        2.8261
        15215.0       47.9336       90.1137        2.8408
        15215.5       47.9424       90.0529        2.8680
        15216.0       47.8714       89.9343        2.8868
        15216.5       47.7230       89.7251        2.8841
        15217.0       47.5259       89.4267        2.8658
        15217.5       47.3387       89.0843        2.8481
        15218.0       47.2307       88.8605        2.8402
        15218.5       47.2516       88.7291        2.8383
        15219.0       47.4126       88.6427        2.8344
        15219.5       47.6875       88.5681        2.8320
        15220.0       48.0314       88.5059        2.8457
