~Version Information Block
VERS .                 2.00:  CWLS LOG ASCII STANDARD - VERSION 2.00
WRAP .                   NO:  One line per depth step
~Well Information Block
#MNEM.UNIT        Data Type   Information
#---------- ----------------  -----------
STRT .F                23.5:  START DEPTH
STOP .F               17600:  STOP DEPTH
STEP .F                 0.5:  STEP
NULL .              -999.25:  NULL VALUE
COMP .                     :  COMPANY
WELL .             	   :  WELL
FLD  .                     :  FIELD
LOC  .                     :  LOCATION
PROV .                     :  PROVINCE
UWI  .                     :  UNIQUE WELL ID
SRVC .                     :  SERVICE COMPANY
DATE .                     :  LOG DATE
~Curve Information Block
#MNEM.UNIT         API CODE   Curve Description
#---------- ----------------  -----------------
DEPTH.F                    :  Depth track
DT   .US/F                 :  P-wave Sonic  
DTSM .US/F                 :  S-wave Sonic
RHOB_BA.G/C3               :  Density
~Parameter Information Block
#MNEM.UNIT            Value   Description
#---------- ----------------  -----------
SET  .                  GTD:  
~Other Information Block
~A        DEPTH             DT           DTSM        RHOB_BA 
# ...
         9355.5       50.6110      100.3686        2.7128
         9356.0       50.6283      100.2605        2.7193
         9356.5       50.6520      100.0401        2.7199
         9357.0       50.6772       99.7240        2.7150
         9357.5       50.7043       99.3585        2.7111
         9358.0       50.7355       99.0031        2.7123
         9358.5       50.7697       98.7029        2.7176
         9359.0       50.7991       98.4729        2.7236
         9359.5       50.8106       98.3068        2.7274
         9360.0       50.7936       98.1999        2.7293
         9360.5       50.7474       98.1511        2.7289
         9361.0       50.6808       98.1534        2.7243
         9361.5       50.6052       98.1973        2.7198
         9362.0       50.5290       98.2814        2.7221
         9362.5       50.4568       98.4132        2.7275
         9363.0       50.3916       98.5880        2.7277
         9363.5       50.3365       98.7755        2.7227
         9364.0       50.2939       98.9335        2.7196
         9364.5       50.2646       99.0423        2.7209
         9365.0       50.2477       99.1228        2.7254
         9365.5       50.2426       99.2070        2.7323
         9366.0       50.2486       99.2921        2.7385
         9366.5       50.2652       99.3304        2.7384
         9367.0       50.2918       99.2710        2.7334
         9367.5       50.3252       99.1116        2.7276
         9368.0       50.3617       98.9036        2.7198
         9368.5       50.3986       98.7100        2.7124
         9369.0       50.4329       98.5563        2.7118
         9369.5       50.4601       98.4294        2.7156
         9370.0       50.4754       98.3184        2.7184
         9370.5       50.4800       98.2445        2.7206
         9371.0       50.4841       98.2593        2.7237
         9371.5       50.5046       98.4138        2.7275
         9372.0       50.5609       98.7304        2.7288
         9372.5       50.6684       99.1917        2.7249
         9373.0       50.8349       99.7395        2.7191
         9373.5       51.0573      100.2846        2.7172
         9374.0       51.3215      100.7344        2.7198
         9374.5       51.6046      101.0250        2.7248
         9375.0       51.8793      101.1331        2.7286
         9375.5       52.1186      101.0604        2.7277
         9376.0       52.2994      100.8146        2.7265
         9376.5       52.4060      100.4220        2.7287
         9377.0       52.4293       99.9519        2.7300
         9377.5       52.3653       99.5085        2.7274
         9378.0       52.2213       99.1893        2.7245
         9378.5       52.0228       99.0434        2.7230
         9379.0       51.8111       99.0676        2.7231
         9379.5       51.6274       99.2317        2.7248
         9380.0       51.4960       99.5012        2.7241
         9380.5       51.4169       99.8311        2.7184
         9381.0       51.3705      100.1477        2.7142
         9381.5       51.3310      100.3550        2.7173
         9382.0       51.2819      100.3723        2.7227
         9382.5       51.2206      100.1790        2.7226
         9383.0       51.1504       99.8298        2.7182
         9383.5       51.0689       99.4275        2.7141
         9384.0       50.9682       99.0702        2.7134
         9384.5       50.8481       98.8105        2.7169
         9385.0       50.7277       98.6560        2.7227
         9385.5       50.6427       98.5932        2.7259
         9386.0       50.6262       98.6032        2.7262
         9386.5       50.6866       98.6702        2.7266
         9387.0       50.8014       98.7848        2.7280
         9387.5       50.9294       98.9417        2.7290
         9388.0       51.0343       99.1240        2.7279
         9388.5       51.1007       99.2935        2.7265
         9389.0       51.1315       99.4035        2.7284
         9389.5       51.1358       99.4335        2.7306
         9390.0       51.1183       99.4127        2.7275
         9390.5       51.0800       99.4003        2.7226
         9391.0       51.0268       99.4484        2.7223
         9391.5       50.9738       99.5677        2.7268
         9392.0       50.9377       99.7188        2.7319
         9392.5       50.9247       99.8305        2.7346
         9393.0       50.9273       99.8402        2.7327
         9393.5       50.9349       99.7368        2.7272
         9394.0       50.9444       99.5664        2.7222
         9394.5       50.9611       99.4013        2.7198
         9395.0       50.9904       99.2891        2.7183
         9395.5       51.0308       99.2262        2.7166
         9396.0       51.0759       99.1795        2.7164
         9396.5       51.1211       99.1311        2.7191
         9397.0       51.1701       99.1075        2.7232
         9397.5       51.2341       99.1574        2.7261
         9398.0       51.3245       99.3068        2.7260
         9398.5       51.4452       99.5283        2.7231
         9399.0       51.5860       99.7469        2.7212
         9399.5       51.7203       99.8909        2.7233
         9400.0       51.8140       99.9375        2.7261
         9400.5       51.8448       99.9162        2.7257
         9401.0       51.8202       99.8692        2.7227
         9401.5       51.7693       99.8107        2.7195
         9402.0       51.7131       99.7263        2.7164
         9402.5       51.6438       99.6011        2.7142
         9403.0       51.5332       99.4457        2.7140
         9403.5       51.3679       99.2922        2.7177
         9404.0       51.1747       99.1753        2.7251
         9404.5       51.0089       99.1190        2.7302
         9405.0       50.9171       99.1313        2.7308
         9405.5       50.9052       99.2003        2.7304
         9406.0       50.9404       99.2947        2.7290
         9406.5       50.9792       99.3757        2.7261
         9407.0       50.9969       99.4141        2.7266
         9407.5       50.9952       99.4010        2.7304
         9408.0       50.9861       99.3496        2.7337
         9408.5       50.9766       99.2821        2.7369
         9409.0       50.9630       99.2071        2.7398
         9409.5       50.9368       99.1085        2.7380
         9410.0       50.8910       98.9628        2.7318
         9410.5       50.8260       98.7708        2.7273
         9411.0       50.7510       98.5721        2.7254
         9411.5       50.6794       98.4196        2.7220
         9412.0       50.6210       98.3358        2.7171
         9412.5       50.5775       98.2937        2.7158
         9413.0       50.5468       98.2454        2.7190
         9413.5       50.5322       98.1709        2.7225
         9414.0       50.5434       98.0970        2.7211
         9414.5       50.5895       98.0744        2.7134
         9415.0       50.6741       98.1411        2.7045
         9415.5       50.7958       98.3045        2.7008
         9416.0       50.9481       98.5448        2.7032
         9416.5       51.1162       98.8279        2.7088
         9417.0       51.2756       99.1214        2.7129
         9417.5       51.3988       99.4041        2.7121
         9418.0       51.4655       99.6640        2.7112
         9418.5       51.4674       99.8838        2.7151
         9419.0       51.4108      100.0265        2.7196
         9419.5       51.3116      100.0437        2.7199
         9420.0       51.1869       99.9003        2.7201
         9420.5       51.0491       99.6004        2.7237
         9421.0       50.9034       99.1899        2.7268
         9421.5       50.7523       98.7384        2.7263
         9422.0       50.6008       98.3088        2.7252
         9422.5       50.4577       97.9451        2.7248
         9423.0       50.3359       97.6887        2.7242
         9423.5       50.2504       97.5912        2.7224
         9424.0       50.2179       97.6965        2.7183
