~Version Information Block
VERS .                 2.00:  CWLS LOG ASCII STANDARD - VERSION 2.00
WRAP .                   NO:  One line per depth step
~Well Information Block
#MNEM.UNIT        Data Type   Information
#---------- ----------------  -----------
STRT .F                23.5:  START DEPTH
STOP .F               17600:  STOP DEPTH
STEP .F                 0.5:  STEP
NULL .              -999.25:  NULL VALUE
COMP .                     :  COMPANY
WELL .             	   :  WELL
FLD  .                     :  FIELD
LOC  .                     :  LOCATION
PROV .                     :  PROVINCE
UWI  .                     :  UNIQUE WELL ID
SRVC .                     :  SERVICE COMPANY
DATE .                     :  LOG DATE
~Curve Information Block
#MNEM.UNIT         API CODE   Curve Description
#---------- ----------------  -----------------
DEPTH.F                    :  Depth track
DT   .US/F                 :  P-wave Sonic  
DTSM .US/F                 :  S-wave Sonic
RHOB_BA.G/C3               :  Density
~Parameter Information Block
#MNEM.UNIT            Value   Description
#---------- ----------------  -----------
SET  .                  GTD:  
~Other Information Block
~A        DEPTH             DT           DTSM        RHOB_BA 
# ...
         2386.5       53.4393      158.3799        2.6604
         2387.0       53.3588      155.8261        2.6607
         2387.5       53.2727      153.1602        2.6613
         2388.0       53.1600      150.5700        2.6622
         2388.5       53.0092      148.2020        2.6632
         2389.0       52.8287      146.1501        2.6643
         2389.5       52.6405      144.4914        2.6659
         2390.0       52.4644      143.2996        2.6680
         2390.5       52.3089      142.6118        2.6702
         2391.0       52.1744      142.3766        2.6719
         2391.5       52.0618      142.4493        2.6726
         2392.0       51.9776      142.6548        2.6725
         2392.5       51.9307      142.8625        2.6721
         2393.0       51.9255      143.0114        2.6718
         2393.5       51.9577      143.0771        2.6715
         2394.0       52.0165      143.0374        2.6713
         2394.5       52.0901      142.8800        2.6710
         2395.0       52.1687      142.6264        2.6706
         2395.5       52.2473      142.3438        2.6699
         2396.0       52.3265      142.1275        2.6689
         2396.5       52.4114      142.0730        2.6679
         2397.0       52.5093      142.2494        2.6671
         2397.5       52.6279      142.6959        2.6668
         2398.0       52.7731      143.4331        2.6665
         2398.5       52.9438      144.4643        2.6659
         2399.0       53.1247      145.7677        2.6648
         2399.5       53.2868      147.2825        2.6631
         2400.0       53.4022      148.9014        2.6607
         2400.5       53.4603      150.4742        2.6581
         2401.0       53.4718      151.8381        2.6564
         2401.5       53.4497      152.8735        2.6567
         2402.0       53.3995      153.5467        2.6593
         2402.5       53.3194      153.8973        2.6627
         2403.0       53.2069      153.9828        2.6651
         2403.5       53.0711      153.8481        2.6662
         2404.0       52.9353      153.5476        2.6662
         2404.5       52.8290      153.1726        2.6657
         2405.0       52.7670      152.8425        2.6652
         2405.5       52.7391      152.6603        2.6650
         2406.0       52.7178      152.6814        2.6654
         2406.5       52.6746      152.9104        2.6662
         2407.0       52.5972      153.3131        2.6667
         2407.5       52.4892      153.8321        2.6669
         2408.0       52.3644      154.3935        2.6675
         2408.5       52.2366      154.9106        2.6689
         2409.0       52.1151      155.3054        2.6706
         2409.5       52.0069      155.5389        2.6720
         2410.0       51.9147      155.6133        2.6729
         2410.5       51.8367      155.5277        2.6735
         2411.0       51.7620      155.2402        2.6739
         2411.5       51.6740      154.6776        2.6736
         2412.0       51.5657      153.7893        2.6728
         2412.5       51.4448      152.5925        2.6725
         2413.0       51.3266      151.1629        2.6736
         2413.5       51.2196      149.5877        2.6762
         2414.0       51.1226      147.9252        2.6789
         2414.5       51.0414      146.2154        2.6806
         2415.0       51.0103      144.5216        2.6811
         2415.5       51.0793      142.9572        2.6807
         2416.0       51.2671      141.6703        2.6798
         2416.5       51.5353      140.7966        2.6781
         2417.0       51.8166      140.4067        2.6746
         2417.5       52.0654      140.4759        2.6694
         2418.0       52.2780      140.8832        2.6644
         2418.5       52.4664      141.4391        2.6619
         2419.0       52.6248      141.9370        2.6627
         2419.5       52.7191      142.1979        2.6652
         2420.0       52.7081      142.1008        2.6672
         2420.5       52.5793      141.5909        2.6678
         2421.0       52.3669      140.6799        2.6679
         2421.5       52.1316      139.4372        2.6684
         2422.0       51.9202      137.9842        2.6699
         2422.5       51.7415      136.4937        2.6724
         2423.0       51.5824      135.1823        2.6753
         2423.5       51.4374      134.2619        2.6777
         2424.0       51.3245      133.8618        2.6787
         2424.5       51.2763      133.9684        2.6786
         2425.0       51.3210      134.4362        2.6779
         2425.5       51.4630      135.0675        2.6771
         2426.0       51.6781      135.6946        2.6757
         2426.5       51.9336      136.2108        2.6732
         2427.0       52.2101      136.5439        2.6697
         2427.5       52.5115      136.6282        2.6664
         2428.0       52.8460      136.4143        2.6641
         2428.5       53.2142      135.9078        2.6625
         2429.0       53.6014      135.1884        2.6610
         2429.5       53.9742      134.3843        2.6589
         2430.0       54.2834      133.6205        2.6560
         2430.5       54.4742      132.9899        2.6524
         2431.0       54.5113      132.5598        2.6464
         2431.5       54.3933      132.3860        2.6400
         2432.0       54.1511      132.5015        2.6416
         2432.5       53.8279      132.8928        2.6517
         2433.0       53.4546      133.4981        2.6599
         2433.5       53.0456      134.2260        2.6683
         2434.0       52.6145      134.9742        2.6741
         2434.5       52.1961      135.6283        2.6764
         2435.0       51.8463      136.0594        2.6760
         2435.5       51.6122      136.1377        2.6745
         2436.0       51.5096      135.7616        2.6734
         2436.5       51.5228      134.8992        2.6733
         2437.0       51.6309      133.6180        2.6741
         2437.5       51.8230      132.0775        2.6750
         2438.0       52.0964      130.4841        2.6750
         2438.5       52.4524      129.0286        2.6734
         2439.0       52.8858      127.8436        2.6697
         2439.5       53.3782      126.9956        2.6640
         2440.0       53.8992      126.4962        2.6573
         2440.5       54.4118      126.3109        2.6509
         2441.0       54.8791      126.3669        2.6398
         2441.5       55.2693      126.5719        2.6324
         2442.0       55.5605      126.8369        2.6300
         2442.5       55.7472      127.0793        2.6313
         2443.0       55.8387      127.2260        2.6343
         2443.5       55.8515      127.2410        2.6370
         2444.0       55.8028      127.1564        2.6384
         2444.5       55.7077      127.0727        2.6382
         2445.0       55.5805      127.0993        2.6375
         2445.5       55.4307      127.2892        2.6375
         2446.0       55.2597      127.6178        2.6398
         2446.5       55.0612      128.0121        2.6447
         2447.0       54.8256      128.4057        2.6504
         2447.5       54.5475      128.7697        2.6531
         2448.0       54.2326      129.1092        2.6555
         2448.5       53.9019      129.4297        2.6578
         2449.0       53.5860      129.7265        2.6601
         2449.5       53.3157      130.0139        2.6625
         2450.0       53.1130      130.3379        2.6649
         2450.5       52.9837      130.7429        2.6669
         2451.0       52.9145      131.2119        2.6680
         2451.5       52.8826      131.6665        2.6677
         2452.0       52.8704      132.0251        2.6661
         2452.5       52.8774      132.2475        2.6639
         2453.0       52.9177      132.3396        2.6623
         2453.5       53.0056      132.3255        2.6622
         2454.0       53.1425      132.2422        2.6633
         2454.5       53.3152      132.1486        2.6645
         2455.0       53.5035      132.1157        2.6644
