~Version Information Block
VERS .                 2.00:  CWLS LOG ASCII STANDARD - VERSION 2.00
WRAP .                   NO:  One line per depth step
~Well Information Block
#MNEM.UNIT        Data Type   Information
#---------- ----------------  -----------
STRT .F                23.5:  START DEPTH
STOP .F               17600:  STOP DEPTH
STEP .F                 0.5:  STEP
NULL .              -999.25:  NULL VALUE
COMP .                     :  COMPANY
WELL .             	   :  WELL
FLD  .                     :  FIELD
LOC  .                     :  LOCATION
PROV .                     :  PROVINCE
UWI  .                     :  UNIQUE WELL ID
SRVC .                     :  SERVICE COMPANY
DATE .                     :  LOG DATE
~Curve Information Block
#MNEM.UNIT         API CODE   Curve Description
#---------- ----------------  -----------------
DEPTH.F                    :  Depth track
DT   .US/F                 :  P-wave Sonic  
DTSM .US/F                 :  S-wave Sonic
RHOB_BA.G/C3               :  Density
~Parameter Information Block
#MNEM.UNIT            Value   Description
#---------- ----------------  -----------
SET  .                  GTD:  
~Other Information Block
~A        DEPTH             DT           DTSM        RHOB_BA 
# ...
         3559.5       54.9950      318.7918        2.6504
         3560.0       54.9845      316.2235        2.6505
         3560.5       54.9783      312.5097        2.6505
         3561.0       54.9774      307.9129        2.6503
         3561.5       54.9790      302.8892        2.6502
         3562.0       54.9800      297.9177        2.6499
         3562.5       54.9820      293.4221        2.6494
         3563.0       54.9898      289.7876        2.6494
         3563.5       55.0072      287.0305        2.6500
         3564.0       55.0348      284.3689        2.6503
         3564.5       55.0717      280.5004        2.6504
         3565.0       55.1172      274.4914        2.6499
         3565.5       55.1706      266.3753        2.6481
         3566.0       55.2297      256.9300        2.6461
         3566.5       55.2909      247.0548        2.6441
         3567.0       55.3495      237.3699        2.6423
         3567.5       55.4005      228.2211        2.6410
         3568.0       55.4399      219.9838        2.6407
         3568.5       55.4629      213.2393        2.6412
         3569.0       55.4639      208.6306        2.6417
         3569.5       55.4391      206.6399        2.6419
         3570.0       55.3915      207.4569        2.6419
         3570.5       55.3313      210.9072        2.6424
         3571.0       55.2692      216.3710        2.6439
         3571.5       55.2112      222.8191        2.6461
         3572.0       55.1592      229.1449        2.6484
         3572.5       55.1190      234.7943        2.6501
         3573.0       55.1018      240.1312        2.6504
         3573.5       55.1189      245.9753        2.6504
         3574.0       55.1733      252.7290        2.6500
         3574.5       55.2573      259.9708        2.6483
         3575.0       55.3603      266.8132        2.6452
         3575.5       55.4772      272.6360        2.6413
         3576.0       55.6076      277.5088        2.6377
         3576.5       55.7470      281.9153        2.6354
         3577.0       55.8804      286.1933        2.6341
         3577.5       55.9896      290.2760        2.6328
         3578.0       56.0660      293.8460        2.6306
         3578.5       56.1157      296.5117        2.6284
         3579.0       56.1517      297.8522        2.6274
         3579.5       56.1816      297.6209        2.6282
         3580.0       56.2031      295.9984        2.6294
         3580.5       56.2112      293.6243        2.6300
         3581.0       56.2059      291.3229        2.6298
         3581.5       56.1935      289.6819        2.6295
         3582.0       56.1801      288.8466        2.6294
         3582.5       56.1657      288.6785        2.6293
         3583.0       56.1451      289.1117        2.6292
         3583.5       56.1140      290.3263        2.6293
         3584.0       56.0725      292.5283        2.6302
         3584.5       56.0234      295.6019        2.6316
         3585.0       55.9702      299.0047        2.6331
         3585.5       55.9186      302.0536        2.6346
         3586.0       55.8806      304.3559        2.6359
         3586.5       55.8722      306.0178        2.6369
         3587.0       55.9067      307.5084        2.6375
         3587.5       55.9858      309.2607        2.6372
         3588.0       56.0950      311.3780        2.6353
         3588.5       56.2072      313.6699        2.6317
         3589.0       56.2956      315.8872        2.6265
         3589.5       56.3476      317.8959        2.6211
         3590.0       56.3661      319.6621        2.6179
         3590.5       56.3600      321.1249        2.6186
         3591.0       56.3331      322.1084        2.6232
         3591.5       56.2828      322.3427        2.6293
         3592.0       56.2090      321.5738        2.6342
         3592.5       56.1233      319.6948        2.6362
         3593.0       56.0490      316.8348        2.6357
         3593.5       56.0093      313.3333        2.6341
         3594.0       56.0135      309.6157        2.6324
         3594.5       56.0538      306.0538        2.6310
         3595.0       56.1128      302.8916        2.6301
         3595.5       56.1758      300.2577        2.6295
         3596.0       56.2355      298.2387        2.6288
         3596.5       56.2893      296.9441        2.6281
         3597.0       56.3361      296.4377        2.6271
         3597.5       56.3752      296.5993        2.6260
         3598.0       56.4056      297.1037        2.6249
         3598.5       56.4250      297.5815        2.6241
         3599.0       56.4288      297.8302        2.6238
         3599.5       56.4123      297.8435        2.6241
         3600.0       56.3747      297.6634        2.6248
         3600.5       56.3201      297.2410        2.6258
         3601.0       56.2561      296.5034        2.6274
         3601.5       56.1909      295.5341        2.6296
         3602.0       56.1279      294.5894        2.6317
         3602.5       56.0633      293.8939        2.6333
         3603.0       55.9910      293.3953        2.6339
         3603.5       55.9111      292.7299        2.6338
         3604.0       55.8331      291.3944        2.6337
         3604.5       55.7687      288.9417        2.6346
         3605.0       55.7234      285.0697        2.6369
         3605.5       55.6937      279.5935        2.6398
         3606.0       55.6727      272.3646        2.6417
         3606.5       55.6554      263.2800        2.6418
         3607.0       55.6410      252.4789        2.6404
         3607.5       55.6322      240.5854        2.6386
         3608.0       55.6321      228.7048        2.6371
         3608.5       55.6404      218.0759        2.6364
         3609.0       55.6518      209.6428        2.6369
         3609.5       55.6594      203.8656        2.6383
         3610.0       55.6586      200.8099        2.6398
         3610.5       55.6485      200.3544        2.6404
         3611.0       55.6327      202.3193        2.6400
         3611.5       55.6180      206.4179        2.6391
         3612.0       55.6093      212.0955        2.6386
         3612.5       55.6051      218.4628        2.6386
         3613.0       55.5974      224.5169        2.6389
         3613.5       55.5784      229.5145        2.6392
         3614.0       55.5458      233.1590        2.6397
         3614.5       55.5037      235.4664        2.6405
         3615.0       55.4589      236.5516        2.6416
         3615.5       55.4176      236.5561        2.6429
         3616.0       55.3817      235.6658        2.6442
         3616.5       55.3436      234.1143        2.6452
         3617.0       55.2923      232.1554        2.6457
         3617.5       55.2235      230.0371        2.6453
         3618.0       55.1454      227.9751        2.6448
         3618.5       55.0711      226.1302        2.6456
         3619.0       55.0084      224.6224        2.6484
         3619.5       54.9580      223.5945        2.6509
         3620.0       54.9207      223.2533        2.6521
         3620.5       54.9014      223.8280        2.6524
         3621.0       54.9048      225.4543        2.6521
         3621.5       54.9303      228.0932        2.6515
         3622.0       54.9716      231.5678        2.6505
         3622.5       55.0204      235.6775        2.6480
         3623.0       55.0710      240.2704        2.6452
         3623.5       55.1199      245.2162        2.6445
         3624.0       55.1625      250.3192        2.6459
         3624.5       55.1895      255.2764        2.6475
         3625.0       55.1915      259.7463        2.6480
         3625.5       55.1694      263.4763        2.6474
         3626.0       55.1356      266.3695        2.6468
         3626.5       55.1049      268.4247        2.6469
         3627.0       55.0858      269.6171        2.6475
         3627.5       55.0835      269.8472        2.6486
         3628.0       55.1067      268.9885        2.6498
