~Version Information Block
VERS .                 2.00:  CWLS LOG ASCII STANDARD - VERSION 2.00
WRAP .                   NO:  One line per depth step
~Well Information Block
#MNEM.UNIT        Data Type   Information
#---------- ----------------  -----------
STRT .F                23.5:  START DEPTH
STOP .F               17600:  STOP DEPTH
STEP .F                 0.5:  STEP
NULL .              -999.25:  NULL VALUE
COMP .                     :  COMPANY
WELL .             	   :  WELL
FLD  .                     :  FIELD
LOC  .                     :  LOCATION
PROV .                     :  PROVINCE
UWI  .                     :  UNIQUE WELL ID
SRVC .                     :  SERVICE COMPANY
DATE .                     :  LOG DATE
~Curve Information Block
#MNEM.UNIT         API CODE   Curve Description
#---------- ----------------  -----------------
DEPTH.F                    :  Depth track
DT   .US/F                 :  P-wave Sonic  
DTSM .US/F                 :  S-wave Sonic
RHOB_BA.G/C3               :  Density
~Parameter Information Block
#MNEM.UNIT            Value   Description
#---------- ----------------  -----------
SET  .                  GTD:  
~Other Information Block
~A        DEPTH             DT           DTSM        RHOB_BA 
           40.5       58.0287      195.7846        2.5361
           41.0       57.6244      191.8733        2.5831
           41.5       57.3207      187.8150        2.6125
           42.0       57.1095      184.0222        2.6280
           42.5       56.9866      180.9923        2.6353
           43.0       56.3699      179.1628        2.6394
           43.5       56.0944      178.6762        2.6414
           44.0       55.9757      179.2060        2.6392
           44.5       55.8915      180.1147        2.6328
           45.0       55.7927      180.8353        2.6261
           45.5       55.6761      181.1940        2.6247
           46.0       55.5414      181.3134        2.6307
           46.5       55.3824      181.2905        2.6409
           47.0       55.2030      181.0718        2.6503
           47.5       55.0296      180.5141        2.6531
           48.0       54.9018      179.5669        2.6550
           48.5       54.8486      178.3625        2.6557
           49.0       54.8740      177.1504        2.6544
           49.5       54.9650      176.1337        2.6513
           50.0       55.1077      175.3698        2.6448
           50.5       55.2922      174.7897        2.6393
           51.0       55.4976      174.3178        2.6373
           51.5       55.6849      173.9681        2.6366
           52.0       55.8149      173.8212        2.6355
           52.5       55.8776      173.9394        2.6336
           53.0       55.8971      174.3164        2.6318
           53.5       55.9041      174.9198        2.6313
           54.0       55.9068      175.7166        2.6327
           54.5       55.8943      176.6450        2.6348
           55.0       55.8620      177.6101        2.6362
           55.5       55.8310      178.5285        2.6362
           56.0       55.8386      179.3996        2.6361
           56.5       55.9135      180.2966        2.6374
           57.0       56.0533      181.3126        2.6386
           57.5       56.2272      182.4787        2.6368
           58.0       56.3968      183.6994        2.6304
           58.5       56.5378      184.7968        2.6215
           59.0       56.6445      185.6107        2.6136
           59.5       56.7163      186.0668        2.6097
           60.0       56.7445      186.1603        2.6102
           60.5       56.7149      185.9021        2.6145
           61.0       56.6229      185.3649        2.6208
           61.5       56.4822      184.7511        2.6273
           62.0       56.3181      184.3701        2.6322
           62.5       56.1544      184.4845        2.6347
           63.0       56.0074      185.1603        2.6354
           63.5       55.8864      186.2744        2.6350
           64.0       55.7936      187.6413        2.6347
           64.5       55.7244      189.1569        2.6352
           65.0       55.6700      190.8079        2.6370
           65.5       55.6198      192.5671        2.6395
           66.0       55.5664      194.3056        2.6418
           66.5       55.5113      195.8208        2.6430
           67.0       55.4634      196.9709        2.6432
           67.5       55.4285      197.7602        2.6432
           68.0       55.3990      198.3023        2.6433
           68.5       55.3633      198.7141        2.6433
           69.0       55.3223      199.0611        2.6427
           69.5       55.2957      199.4076        2.6425
           70.0       55.3060      199.8310        2.6441
           70.5       55.3572      200.3513        2.6474
           71.0       55.4298      200.8723        2.6495
           71.5       55.4995      201.2213        2.6476
           72.0       55.5586      201.2768        2.6417
           72.5       55.6160      201.0324        2.6354
           73.0       55.6776      200.5563        2.6320
           73.5       55.7322      199.8987        2.6318
           74.0       55.7565      199.0404        2.6333
           74.5       55.7342      197.9513        2.6352
           75.0       55.6700      196.7018        2.6377
           75.5       55.5862      195.5353        2.6408
           76.0       55.5086      194.8049        2.6436
           76.5       55.4540      194.7934        2.6450
           77.0       55.4298      195.5613        2.6453
           77.5       55.4358      196.9144        2.6450
           78.0       55.4638      198.5197        2.6440
           78.5       55.4956      200.0758        2.6419
           79.0       55.5103      201.4127        2.6391
           79.5       55.4970      202.4905        2.6369
           80.0       55.4599      203.3172        2.6365
           80.5       55.4085      203.8667        2.6385
           81.0       55.3429      204.0541        2.6426
           81.5       55.2566      203.7989        2.6473
           82.0       55.1493      203.1184        2.6503
           82.5       55.0341      202.1633        2.6508
           83.0       54.9314      201.1678        2.6509
           83.5       54.8587      200.3393        2.6510
           84.0       54.8223      199.7657        2.6515
           84.5       54.8198      199.4202        2.6519
           85.0       54.8472      199.2644        2.6519
           85.5       54.9047      199.3201        2.6517
           86.0       54.9955      199.6411        2.6513
           86.5       55.1177      200.2198        2.6505
           87.0       55.2598      200.9085        2.6478
           87.5       55.4033      201.4518        2.6432
           88.0       55.5315      201.6355        2.6385
           88.5       55.6355      201.4264        2.6346
           89.0       55.7124      200.9538        2.6324
           89.5       55.7624      200.3678        2.6323
           90.0       55.7859      199.7237        2.6340
           90.5       55.7814      199.0040        2.6368
           91.0       55.7463      198.2610        2.6391
           91.5       55.6837      197.7079        2.6399
           92.0       55.6070      197.6385        2.6394
           92.5       55.5330      198.2210        2.6390
           93.0       55.4705      199.3551        2.6399
           93.5       55.4111      200.7361        2.6421
           94.0       55.3367      202.0672        2.6442
           94.5       55.2369      203.2127        2.6456
           95.0       55.1203      204.1183        2.6466
           95.5       55.0195      204.6214        2.6484
           96.0       54.9775      204.4144        2.6506
           96.5       55.0218      203.1963        2.6520
           97.0       55.1479      200.8457        2.6530
           97.5       55.3247      197.4838        2.6524
           98.0       55.5195      193.4395        2.6490
           98.5       55.7151      189.2037        2.6376
           99.0       55.9045      185.4362        2.6263
           99.5       56.0781      182.9117        2.6194
          100.0       56.2161      182.3279        2.6183
          100.5       56.2935      184.0193        2.6211
          101.0       56.2936      187.7932        2.6255
          101.5       56.2223      193.0324        2.6301
          102.0       56.1078      198.9777        2.6341
          102.5       55.9849      204.9531        2.6366
          103.0       55.8777      210.3632        2.6373
          103.5       55.7931      214.5835        2.6371
          104.0       55.7278      216.9734        2.6369
          104.5       55.6760      217.0737        2.6372
          105.0       55.6315      214.8487        2.6377
          105.5       55.5911      210.7581        2.6386
          106.0       55.5538      205.5949        2.6403
          106.5       55.5193      200.1792        2.6422
          107.0       55.4863      195.1078        2.6435
          107.5       55.4531      190.6832        2.6436
          108.0       55.4206      186.9781        2.6429
          108.5       55.3917      183.9862        2.6423
          109.0       55.3684      181.7687        2.6423
