~Version Information Block
VERS .                 2.00:  CWLS LOG ASCII STANDARD - VERSION 2.00
WRAP .                   NO:  One line per depth step
~Well Information Block
#MNEM.UNIT        Data Type   Information
#---------- ----------------  -----------
STRT .F                23.5:  START DEPTH
STOP .F               17600:  STOP DEPTH
STEP .F                 0.5:  STEP
NULL .              -999.25:  NULL VALUE
COMP .                     :  COMPANY
WELL .             	   :  WELL
FLD  .                     :  FIELD
LOC  .                     :  LOCATION
PROV .                     :  PROVINCE
UWI  .                     :  UNIQUE WELL ID
SRVC .                     :  SERVICE COMPANY
DATE .                     :  LOG DATE
~Curve Information Block
#MNEM.UNIT         API CODE   Curve Description
#---------- ----------------  -----------------
DEPTH.F                    :  Depth track
DT   .US/F                 :  P-wave Sonic  
DTSM .US/F                 :  S-wave Sonic
RHOB_BA.G/C3               :  Density
~Parameter Information Block
#MNEM.UNIT            Value   Description
#---------- ----------------  -----------
SET  .                  GTD:  
~Other Information Block
~A        DEPTH             DT           DTSM        RHOB_BA 
# ...
         7009.5       56.0991      112.4527        2.6927
         7010.0       55.7184      111.2184        2.6991
         7010.5       55.4448      110.2348        2.6963
         7011.0       55.2945      109.5619        2.6864
         7011.5       55.2586      109.2205        2.6823
         7012.0       55.3099      109.2067        2.6888
         7012.5       55.4200      109.4997        2.6987
         7013.0       55.5716      110.0473        2.7028
         7013.5       55.7557      110.7560        2.6975
         7014.0       55.9612      111.5186        2.6862
         7014.5       56.1747      112.2523        2.6767
         7015.0       56.3900      112.9295        2.6750
         7015.5       56.6084      113.5574        2.6801
         7016.0       56.8234      114.1186        2.6860
         7016.5       57.0058      114.5380        2.6865
         7017.0       57.1123      114.7134        2.6826
         7017.5       57.1118      114.5903        2.6807
         7018.0       57.0065      114.2043        2.6846
         7018.5       56.8298      113.6550        2.6906
         7019.0       56.6269      113.0415        2.6922
         7019.5       56.4392      112.4230        2.6898
         7020.0       56.2993      111.8470        2.6907
         7020.5       56.2354      111.3954        2.6973
         7021.0       56.2730      111.1867        2.7026
         7021.5       56.4243      111.3256        2.7006
         7022.0       56.6743      111.8532        2.6929
         7022.5       56.9794      112.7328        2.6872
         7023.0       57.2858      113.8618        2.6886
         7023.5       57.5516      115.1108        2.6931
         7024.0       57.7524      116.3577        2.6942
         7024.5       57.8792      117.5134        2.6918
         7025.0       57.9378      118.5333        2.6889
         7025.5       57.9510      119.4012        2.6867
         7026.0       57.9559      120.1064        2.6891
         7026.5       57.9884      120.6318        2.6992
         7027.0       58.0652      120.9672        2.7102
         7027.5       58.1736      121.1227        2.7122
         7028.0       58.2803      121.1319        2.7073
         7028.5       58.3530      121.0458        2.7026
         7029.0       58.3732      120.9030        2.6990
         7029.5       58.3365      120.7156        2.6964
         7030.0       58.2417      120.4670        2.6976
         7030.5       58.0869      120.1339        2.7013
         7031.0       57.8784      119.7116        2.7012
         7031.5       57.6416      119.2413        2.6972
         7032.0       57.4203      118.8132        2.6943
         7032.5       57.2613      118.5157        2.6943
         7033.0       57.1948      118.3827        2.6943
         7033.5       57.2214      118.3761        2.6908
         7034.0       57.3189      118.4337        2.6844
         7034.5       57.4615      118.5342        2.6799
         7035.0       57.6322      118.7034        2.6794
         7035.5       57.8228      118.9685        2.6800
         7036.0       58.0266      119.3078        2.6799
         7036.5       58.2365      119.6639        2.6808
         7037.0       58.4428      119.9947        2.6850
         7037.5       58.6287      120.2967        2.6905
         7038.0       58.7704      120.5908        2.6923
         7038.5       58.8455      120.8840        2.6889
         7039.0       58.8476      121.1628        2.6839
         7039.5       58.7948      121.4170        2.6806
         7040.0       58.7215      121.6549        2.6804
         7040.5       58.6587      121.8866        2.6829
         7041.0       58.6195      122.0977        2.6857
         7041.5       58.6013      122.2608        2.6870
         7042.0       58.5985      122.3608        2.6872
         7042.5       58.6136      122.4103        2.6877
         7043.0       58.6521      122.4296        2.6881
         7043.5       58.7084      122.4183        2.6868
         7044.0       58.7638      122.3561        2.6836
         7044.5       58.7981      122.2285        2.6797
         7045.0       58.8010      122.0487        2.6752
         7045.5       58.7745      121.8458        2.6720
         7046.0       58.7287      121.6401        2.6761
         7046.5       58.6739      121.4420        2.6891
         7047.0       58.6213      121.2711        2.7034
         7047.5       58.5855      121.1604        2.7106
         7048.0       58.5851      121.1375        2.7106
         7048.5       58.6367      121.2007        2.7078
         7049.0       58.7445      121.3285        2.7049
         7049.5       58.8976      121.5112        2.7038
         7050.0       59.0712      121.7663        2.7046
         7050.5       59.2330      122.1184        2.7034
         7051.0       59.3494      122.5620        2.6987
         7051.5       59.3924      123.0477        2.6955
         7052.0       59.3522      123.5046        2.6944
         7052.5       59.2394      123.8782        2.6898
         7053.0       59.0777      124.1533        2.6820
         7053.5       58.8938      124.3460        2.6799
         7054.0       58.7130      124.4772        2.6889
         7054.5       58.5616      124.5572        2.7017
         7055.0       58.4716      124.5938        2.7056
         7055.5       58.4831      124.6081        2.6998
         7056.0       58.6317      124.6366        2.6934
         7056.5       58.9282      124.7218        2.6887
         7057.0       59.3488      124.8948        2.6839
         7057.5       59.8359      125.1732        2.6814
         7058.0       60.3164      125.5616        2.6827
         7058.5       60.7229      126.0393        2.6856
         7059.0       61.0082      126.5462        2.6889
         7059.5       61.1540      126.9889        2.6905
         7060.0       61.1685      127.2782        2.6858
         7060.5       61.0790      127.3795        2.6742
         7061.0       60.9201      127.3335        2.6626
         7061.5       60.7230      127.2215        2.6582
         7062.0       60.5081      127.1021        2.6612
         7062.5       60.2833      126.9724        2.6695
         7063.0       60.0505      126.7912        2.6822
         7063.5       59.8151      126.5406        2.6915
         7064.0       59.5862      126.2606        2.6894
         7064.5       59.3706      126.0217        2.6821
         7065.0       59.1692      125.8693        2.6801
         7065.5       58.9817      125.8000        2.6814
         7066.0       58.8155      125.7932        2.6807
         7066.5       58.6893      125.8447        2.6800
         7067.0       58.6263      125.9672        2.6835
         7067.5       58.6381      126.1638        2.6909
         7068.0       58.7122      126.4090        2.6981
         7068.5       58.8187      126.6665        2.7001
         7069.0       58.9386      126.9130        2.6967
         7069.5       59.0885      127.1404        2.6906
         7070.0       59.3141      127.3341        2.6859
         7070.5       59.6432      127.4785        2.6850
         7071.0       60.0511      127.5697        2.6847
         7071.5       60.4679      127.6056        2.6800
         7072.0       60.8171      127.5713        2.6730
         7072.5       61.0455      127.4376        2.6701
         7073.0       61.1293      127.1944        2.6688
         7073.5       61.0689      126.8846        2.6589
         7074.0       60.8793      126.5930        2.6427
         7074.5       60.5790      126.3978        2.6377
         7075.0       60.1905      126.3341        2.6528
         7075.5       59.7552      126.4106        2.6757
         7076.0       59.3399      126.6458        2.6902
         7076.5       59.0243      127.0742        2.6904
         7077.0       58.8782      127.7193        2.6828
         7077.5       58.9417      128.5648        2.6786
         7078.0       59.2089      129.5612        2.6824
