~Version Information Block
VERS .                 2.00:  CWLS LOG ASCII STANDARD - VERSION 2.00
WRAP .                   NO:  One line per depth step
~Well Information Block
#MNEM.UNIT        Data Type   Information
#---------- ----------------  -----------
STRT .F                23.5:  START DEPTH
STOP .F               17600:  STOP DEPTH
STEP .F                 0.5:  STEP
NULL .              -999.25:  NULL VALUE
COMP .                     :  COMPANY
WELL .             	   :  WELL
FLD  .                     :  FIELD
LOC  .                     :  LOCATION
PROV .                     :  PROVINCE
UWI  .                     :  UNIQUE WELL ID
SRVC .                     :  SERVICE COMPANY
DATE .                     :  LOG DATE
~Curve Information Block
#MNEM.UNIT         API CODE   Curve Description
#---------- ----------------  -----------------
DEPTH.F                    :  Depth track
DT   .US/F                 :  P-wave Sonic  
DTSM .US/F                 :  S-wave Sonic
RHOB_BA.G/C3               :  Density
~Parameter Information Block
#MNEM.UNIT            Value   Description
#---------- ----------------  -----------
SET  .                  GTD:  
~Other Information Block
~A        DEPTH             DT           DTSM        RHOB_BA 
# ...
         1213.5       53.0980      180.2067        2.6642
         1214.0       53.1996      179.6007        2.6637
         1214.5       53.3142      179.0578        2.6628
         1215.0       53.4277      178.6915        2.6613
         1215.5       53.5354      178.6533        2.6596
         1216.0       53.6367      179.1088        2.6584
         1216.5       53.7292      180.1375        2.6579
         1217.0       53.8089      181.6538        2.6577
         1217.5       53.8753      183.4033        2.6577
         1218.0       53.9347      185.0263        2.6577
         1218.5       53.9971      186.1390        2.6578
         1219.0       54.0707      186.4293        2.6577
         1219.5       54.1576      185.7910        2.6570
         1220.0       54.2546      184.3912        2.6559
         1220.5       54.3573      182.5638        2.6545
         1221.0       54.4608      180.5617        2.6532
         1221.5       54.5551      178.3815        2.6522
         1222.0       54.6247      175.8553        2.6515
         1222.5       54.6554      172.9431        2.6512
         1223.0       54.6422      169.9603        2.6512
         1223.5       54.5881      167.5140        2.6517
         1224.0       54.4936      166.1961        2.6526
         1224.5       54.3517      166.3037        2.6538
         1225.0       54.1552      167.7990        2.6552
         1225.5       53.9095      170.4935        2.6566
         1226.0       53.6382      174.2433        2.6581
         1226.5       53.3733      178.9743        2.6604
         1227.0       53.1426      184.5826        2.6636
         1227.5       52.9658      190.8488        2.6668
         1228.0       52.8566      197.4602        2.6689
         1228.5       52.8326      204.0846        2.6694
         1229.0       52.9219      210.4162        2.6686
         1229.5       53.1539      216.2115        2.6666
         1230.0       53.5366      221.3087        2.6637
         1230.5       54.0415      225.6414        2.6598
         1231.0       54.6073      229.1986        2.6550
         1231.5       55.1629      231.9215        2.6478
         1232.0       55.6522      233.6307        2.6320
         1232.5       56.0476      234.0598        2.6182
         1233.0       56.3449      233.0014        2.6100
         1233.5       56.5476      230.4627        2.6093
         1234.0       56.6550      226.7162        2.6144
         1234.5       56.6654      222.2164        2.6216
         1235.0       56.5863      217.4470        2.6274
         1235.5       56.4421      212.7844        2.6303
         1236.0       56.2709      208.4507        2.6307
         1236.5       56.1089      204.5790        2.6300
         1237.0       55.9769      201.3104        2.6300
         1237.5       55.8741      198.8151        2.6318
         1238.0       55.7830      197.2162        2.6354
         1238.5       55.6847      196.4881        2.6394
         1239.0       55.5708      196.4434        2.6421
         1239.5       55.4477      196.8304        2.6434
         1240.0       55.3330      197.4940        2.6444
         1240.5       55.2518      198.4916        2.6459
         1241.0       55.2257      200.0694        2.6477
         1241.5       55.2605      202.4868        2.6492
         1242.0       55.3415      205.8071        2.6498
         1242.5       55.4428      209.8275        2.6483
         1243.0       55.5452      214.1853        2.6437
         1243.5       55.6451      218.5496        2.6369
         1244.0       55.7486      222.7247        2.6309
         1244.5       55.8565      226.5882        2.6287
         1245.0       55.9547      229.9594        2.6300
         1245.5       56.0198      232.5541        2.6322
         1246.0       56.0363      234.1150        2.6331
         1246.5       56.0074      234.5952        2.6329
         1247.0       55.9503      234.2309        2.6329
         1247.5       55.8809      233.4410        2.6334
         1248.0       55.8057      232.6504        2.6341
         1248.5       55.7270      232.1403        2.6353
         1249.0       55.6490      232.0034        2.6374
         1249.5       55.5766      232.2019        2.6407
         1250.0       55.5103      232.6392        2.6438
         1250.5       55.4474      233.2117        2.6454
         1251.0       55.3901      233.8113        2.6451
         1251.5       55.3469      234.3157        2.6441
         1252.0       55.3249      234.5997        2.6437
         1252.5       55.3187      234.5698        2.6439
         1253.0       55.3075      234.2245        2.6443
         1253.5       55.2648      233.6831        2.6443
         1254.0       55.1728      233.1611        2.6442
         1254.5       55.0297      232.8794        2.6448
         1255.0       54.8442      232.9646        2.6470
         1255.5       54.6259      233.4207        2.6507
         1256.0       54.3809      234.1304        2.6534
         1256.5       54.1165      234.8939        2.6565
         1257.0       53.8518      235.5119        2.6593
         1257.5       53.6249      235.8648        2.6615
         1258.0       53.4817      235.9366        2.6632
         1258.5       53.4500      235.7523        2.6645
         1259.0       53.5223      235.3350        2.6648
         1259.5       53.6656      234.7178        2.6633
         1260.0       53.8487      233.9874        2.6599
         1260.5       54.0597      233.3047        2.6556
         1261.0       54.3000      232.8652        2.6520
         1261.5       54.5631      232.8077        2.6502
         1262.0       54.8238      233.1359        2.6498
         1262.5       55.0480      233.7327        2.6497
         1263.0       55.2138      234.4638        2.6481
         1263.5       55.3244      235.2648        2.6452
         1264.0       55.4009      236.1199        2.6419
         1264.5       55.4616      236.9793        2.6392
         1265.0       55.5083      237.7319        2.6376
         1265.5       55.5287      238.2665        2.6375
         1266.0       55.5092      238.5298        2.6385
         1266.5       55.4430      238.5310        2.6402
         1267.0       55.3325      238.3293        2.6422
         1267.5       55.1885      238.0181        2.6447
         1268.0       55.0318      237.7276        2.6481
         1268.5       54.8938      237.6052        2.6509
         1269.0       54.8092      237.7478        2.6526
         1269.5       54.8001      238.1544        2.6541
         1270.0       54.8658      238.7533        2.6549
         1270.5       54.9874      239.4811        2.6542
         1271.0       55.1430      240.3244        2.6516
         1271.5       55.3188      241.2799        2.6439
         1272.0       55.5068      242.3056        2.6347
         1272.5       55.6922      243.3177        2.6293
         1273.0       55.8456      244.2361        2.6280
         1273.5       55.9307      245.0253        2.6290
         1274.0       55.9243      245.6918        2.6307
         1274.5       55.8332      246.2574        2.6330
         1275.0       55.6912      246.7367        2.6361
         1275.5       55.5371      247.1419        2.6401
         1276.0       55.3936      247.5013        2.6446
         1276.5       55.2637      247.8475        2.6487
         1277.0       55.1429      248.1772        2.6505
         1277.5       55.0301      248.4285        2.6508
         1278.0       54.9304      248.5351        2.6506
         1278.5       54.8479      248.4987        2.6504
         1279.0       54.7811      248.3877        2.6508
         1279.5       54.7264      248.2778        2.6515
         1280.0       54.6803      248.1981        2.6524
         1280.5       54.6431      248.1363        2.6531
         1281.0       54.6204      248.0770        2.6538
         1281.5       54.6214      248.0255        2.6540
         1282.0       54.6521      247.9991        2.6538
